     3.04           OBSERVATION DATA    G                   RINEX VERSION / TYPE
Mdb2Rinex 5.6.46W                       20170714 232753 UTC PGM / RUN BY / DATE 
gfzrnx-1.13-7761    FILE PROCESSING     20240528 105715 UTC COMMENT             
2672                                                        MARKER NAME         
2672                                                        MARKER NUMBER       
                                                            OBSERVER / AGENCY   
472672              LEICA GX1230GG      7.53/3.054          REC # / TYPE / VERS 
                    LEIAX1202GG     NONE                    ANT # / TYPE        
        0.0670        0.0000        0.0000                  ANTENNA: DELTA H/E/N
  3965001.0631 -4392463.8330 -2374512.5318    APPR FROM RCV COMMENT
  3965001.0789 -4392463.1685 -2374512.5743                  APPROX POSITION XYZ
G    8 C1C C2W D1C D2W L1C L2W S1C S2W                      SYS / # / OBS TYPES 
SNR is mapped to RINEX snr flag value [1-9]                 COMMENT             
LX:     < 12dBHz -> 1; 12-17dBHz -> 2; 18-23dBHz -> 3       COMMENT             
       24-29dBHz -> 4; 30-35dBHz -> 5; 36-41dBHz -> 6       COMMENT             
       42-47dBHz -> 7; 48-53dBHz -> 8; >= 54dBHz -> 9       COMMENT             
DBHZ                                                        SIGNAL STRENGTH UNIT
     0                                                      RCV CLOCK OFFS APPL 
G L1C                                                       SYS / PHASE SHIFT   
G L2W                                                       SYS / PHASE SHIFT   
    18    18  1929     7                                    LEAP SECONDS        
     6                                                      # OF SATELLITES     
   G18   121   121   121   121   121   121   121   121      PRN / # OF OBS      
   G20   121   121   121   121   121   121   121   121      PRN / # OF OBS      
   G21   121   121   121   121   121   121   121   121      PRN / # OF OBS      
   G25   121   121   121   121   121   121   121   121      PRN / # OF OBS      
   G26   121   121   121   121   121   121   121   121      PRN / # OF OBS      
   G29   121   121   121   121   121   121   121   121      PRN / # OF OBS      
    15.000                                                  INTERVAL            
  2017     3    29    13     5    0.0000000     GPS         TIME OF FIRST OBS   
  2017     3    29    13    35    0.0000000     GPS         TIME OF LAST OBS    
                                                            END OF HEADER      
> 2017 03 29 13 05 00.0000000  0  6
G18  22541600.620    22541601.520        -674.698        -674.698   118456936.93107  92304088.65706        47.000          38.000
G20  20705902.760    20705902.180         131.547         131.547   108810254.78208  84787211.15806        48.750          39.750
G21  21198534.720    21198533.980        -230.601        -230.600   111399057.43208  86804447.64107        49.000          43.500
G25  20581969.940    20581972.080         282.959         282.960   108158978.10108  84279730.71407        50.250          46.250
G26  23943670.440    23943674.340        -620.257        -620.257   125824838.90207  98045365.93806        44.000          37.250
G29  21205311.660    21205311.560         -71.098         -71.097   111434665.52308  86832207.42107        50.750          43.000
> 2017 03 29 13 05 15.0000000  0  6
G18  22531484.820    22531485.800        -674.077        -674.075   118403778.45808  92262666.47106        48.000          38.000
G20  20707889.140    20707888.580         133.327         133.327   108820693.47908  84795345.20706        48.500          41.000
G21  21195084.160    21195083.460        -229.443        -229.443   111380924.78508  86790318.29507        49.250          44.250
G25  20586227.860    20586230.060         284.797         284.798   108181353.62408  84297166.18207        50.500          46.750
G26  23934371.820    23934375.760        -619.519        -619.518   125775974.81306  98007290.00806        41.500          37.750
G29  21204247.880    21204247.760         -70.718         -70.717   111429075.45308  86827851.51807        50.500          42.750
> 2017 03 29 13 05 30.0000000  0  6
G18  22521376.820    22521377.860        -673.600        -673.600   118350660.79908  92221276.09306        48.000          38.250
G20  20709900.880    20709900.380         134.978         134.979   108831265.47208  84803583.12906        48.750          41.250
G21  21191649.480    21191648.840        -228.431        -228.429   111362875.62208  86776254.01007        49.500          43.500
G25  20590511.680    20590513.960         286.479         286.480   108203865.28208  84314707.71507        50.500          46.500
G26  23925082.160    23925086.260        -618.954        -618.954   125727158.54507  97969251.37606        42.250          39.750
G29  21203188.400    21203188.300         -70.478         -70.477   111423507.99308  86823513.22907        50.500          43.000
> 2017 03 29 13 05 45.0000000  0  6
G18  22511276.400    22511277.380        -673.099        -673.099   118297582.64708  92179916.51506        48.250          38.500
G20  20711937.600    20711937.120         136.615         136.616   108841968.73408  84811923.32406        48.250          41.250
G21  21188230.340    21188229.760        -227.396        -227.396   111344908.09608  86762253.33407        49.250          43.500
G25  20594821.040    20594823.380         288.160         288.161   108226511.04308  84332353.75307        50.500          46.500
G26  23915801.300    23915805.540        -618.367        -618.367   125678388.57907  97931248.80506        43.000          37.750
G29  21202132.860    21202132.840         -70.216         -70.215   111417961.42108  86819191.19907        50.250          44.000
> 2017 03 29 13 06 00.0000000  0  6
G18  22501183.200    22501184.000        -672.866        -672.866   118244542.21308  92138586.32106        48.500          37.250
G20  20713998.880    20713998.420         138.026         138.027   108852800.95708  84820364.02806        48.500          41.750
G21  21184826.300    21184825.780        -226.667        -226.666   111327019.94508  86748314.50907        49.750          43.750
G25  20599155.480    20599157.900         289.560         289.560   108249288.63908  84350102.51907        50.500          47.000
G26  23906528.940    23906533.320        -618.111        -618.112   125629663.02507  97893280.88806        43.000          37.750
G29  21201080.920    21201080.980         -70.231         -70.230   111412433.77508  86814883.91607        50.000          44.500
> 2017 03 29 13 06 15.0000000  0  6
G18  22491101.440    22491101.940        -672.118        -672.118   118191561.66808  92097302.81206        48.500          37.250
G20  20716088.840    20716088.400         139.943         139.944   108863783.86608  84828922.13407        48.500          42.000
G21  21181441.540    21181441.040        -225.354        -225.353   111309232.88508  86734454.47007        49.750          43.750
G25  20603519.120    20603521.620         291.537         291.538   108272219.68808  84367970.85607        50.750          46.500
G26  23897269.320    23897273.840        -617.260        -617.259   125581004.12707  97855364.88006        43.000          38.000
G29  21200036.800    21200036.940         -69.711         -69.710   111406947.04508  86810608.51507        50.000          44.500
> 2017 03 29 13 06 30.0000000  0  6
G18  22481024.780    22481024.880        -671.579        -671.579   118138607.72907  92056040.02306        47.000          39.000
G20  20718201.080    20718200.640         141.624         141.625   108874883.72208  84837571.36707        48.000          42.500
G21  21178069.640    21178069.180        -224.285        -224.284   111291513.37308  86720647.06707        49.250          43.750
G25  20607905.540    20607908.080         293.266         293.267   108295270.42008  84385932.45307        50.750          46.250
G26  23888016.100    23888020.800        -616.557        -616.556   125532378.55807  97817474.84306        42.500          39.000
G29  21198994.060    21198994.320         -69.407         -69.406   111401467.64308  86806338.83307        50.000          44.750
> 2017 03 29 13 06 45.0000000  0  6
G18  22470957.500    22470957.280        -670.855        -670.855   118085703.28207  92014815.79306        46.750          38.750
G20  20720339.800    20720339.380         143.465         143.466   108886122.76908  84846329.06007        48.250          42.000
G21  21174714.800    21174714.360        -223.086        -223.086   111273883.54608  86706909.54807        49.250          43.250
G25  20612319.000    20612321.560         295.128         295.129   108318463.08608  84404004.64207        51.250          46.500
G26  23878773.540    23878778.420        -615.863        -615.862   125483808.98206  97779628.39706        41.750          39.750
G29  21197957.040    21197957.420         -68.951         -68.950   111396018.21108  86802092.50207        50.500          44.500
> 2017 03 29 13 07 00.0000000  0  6
G18  22460899.100    22460898.740        -670.239        -670.238   118032846.08308  91973628.35706        48.000          39.000
G20  20722504.520    20722504.120         145.160         145.161   108897498.41008  84855193.18107        48.500          42.250
G21  21171376.540    21171376.140        -222.028        -222.028   111256340.94508  86693239.99207        49.000          43.250
G25  20616758.960    20616761.520         296.837         296.839   108341795.01308  84422185.34607        51.250          46.500
G26  23869541.220    23869546.260        -615.143        -615.142   125435293.27607  97741823.97706        42.500          37.750
G29  21196925.280    21196925.760         -68.653         -68.652   111390596.30508  86797867.61507        50.750          44.500
> 2017 03 29 13 07 15.0000000  0  6
G18  22450848.840    22450848.420        -669.825        -669.826   117980031.47108  91932474.12406        48.500          39.500
G20  20724694.300    20724693.920         146.754         146.755   108909005.74708  84864159.93007        48.500          43.000
G21  21168053.880    21168053.520        -221.061        -221.059   111238880.51908  86679634.45007        48.500          43.000
G25  20621224.480    20621227.020         298.471         298.472   108365261.18708  84440470.66007        51.250          46.500
G26  23860318.340    23860323.440        -614.573        -614.573   125386826.84607  97704057.96306        43.500          39.250
G29  21195897.900    21195898.440         -68.419         -68.418   111385197.23608  86793660.53207        50.750          44.500
> 2017 03 29 13 07 30.0000000  0  6
G18  22440808.560    22440808.100        -669.281        -669.280   117927269.24707  91891360.69406        47.500          39.000
G20  20726910.920    20726910.500         148.418         148.419   108920653.92508  84873236.40707        48.250          43.000
G21  21164748.540    21164748.280        -220.005        -220.004   111221511.41608  86666100.07907        48.250          43.500
G25  20625717.280    20625719.760         300.162         300.163   108388870.64808  84458867.62607        51.000          46.250
G26  23851106.720    23851111.780        -613.984        -613.984   125338419.28807  97666337.80806        44.500          38.000
G29  21194876.620    21194877.200         -68.114         -68.113   111379830.24508  86789478.45907        50.750          44.250
> 2017 03 29 13 07 45.0000000  0  6
G18  22430772.020    22430771.560        -668.791        -668.790   117874526.70507  91850262.62006        47.500          39.750
G20  20729148.020    20729147.580         150.049         150.049   108932409.78608  84882396.80807        48.500          43.250
G21  21161454.260    21161454.160        -219.044        -219.042   111204200.62708  86652611.14307        49.000          43.500
G25  20630231.040    20630233.480         301.804         301.805   108412590.34308  84477350.48707        51.000          45.750
G26  23841900.160    23841905.100        -613.437        -613.437   125290038.00807  97628638.15206        44.000          39.750
G29  21193855.260    21193855.860         -67.885         -67.885   111374462.73108  86785295.97807        50.750          44.250
> 2017 03 29 13 08 00.0000000  0  6
G18  22420746.220    22420745.760        -668.092        -668.092   117821840.64408  91809208.54706        48.000          39.750
G20  20731412.560    20731412.100         151.823         151.824   108944309.83808  84891669.55907        48.500          43.250
G21  21158178.080    21158178.080        -217.886        -217.884   111186984.64508  86639196.09207        49.250          43.000
G25  20634772.700    20634775.060         303.649         303.650   108436456.63308  84495947.58007        51.000          45.000
G26  23832705.640    23832710.420        -612.678        -612.678   125241719.84807  97590987.65306        42.750          40.000
G29  21192840.760    21192841.360         -67.485         -67.484   111369131.32108  86781141.61907        50.500          44.000
> 2017 03 29 13 08 15.0000000  0  6
G18  22410729.380    22410728.980        -667.506        -667.506   117769201.72607  91768191.22006        47.750          39.500
G20  20733702.660    20733702.200         153.505         153.505   108956344.27908  84901047.02507        48.750          43.750
G21  21154918.160    21154918.220        -216.794        -216.794   111169853.91008  86625847.47507        49.250          43.250
G25  20639340.380    20639342.620         305.363         305.364   108460459.65908  84514651.21607        50.750          45.250
G26  23823521.320    23823526.000        -611.958        -611.957   125193455.54807  97553379.11306        43.750          39.000
G29  21191831.300    21191831.900         -67.131         -67.129   111363826.53608  86777008.01207        50.000          44.250
> 2017 03 29 13 08 30.0000000  0  6
G18  22400721.120    22400720.780        -666.889        -666.888   117716607.91207  91727209.03806        47.750          39.750
G20  20736017.840    20736017.380         155.209         155.210   108968510.40308  84910527.11007        48.750          43.000
G21  21151674.000    21151674.040        -215.711        -215.711   111152805.78708  86612563.21907        49.000          43.250
G25  20643933.560    20643935.680         307.084         307.085   108484596.79408  84533459.34607        50.750          45.500
G26  23814346.820    23814351.400        -611.275        -611.275   125145242.83307  97515810.78506        44.250          38.750
G29  21190826.400    21190827.020         -66.840         -66.839   111358545.94308  86772893.24407        50.250          43.500
> 2017 03 29 13 08 45.0000000  0  6
G18  22390721.840    22390721.540        -666.308        -666.308   117664061.27308  91686263.61906        48.500          38.250
G20  20738358.360    20738357.900         156.894         156.895   108980809.78008  84920111.01507        49.000          43.250
G21  21148445.880    21148445.840        -214.674        -214.674   111135841.79108  86599344.52107        49.250          42.750
G25  20648552.540    20648554.580         308.803         308.804   108508869.56108  84552373.17007        50.500          45.250
G26  23805182.500    23805187.020        -610.595        -610.595   125097083.75707  97478284.25006        44.000          38.500
G29  21189826.440    21189827.060         -66.487         -66.486   111353291.38108  86768798.77707        50.250          43.250
> 2017 03 29 13 09 00.0000000  0  6
G18  22380731.020    22380730.660        -665.828        -665.828   117611558.78608  91645352.61706        48.500          36.750
G20  20740723.580    20740723.100         158.460         158.461   108993238.86908  84929796.00107        49.000          43.000
G21  21145233.140    21145232.980        -213.721        -213.720   111118958.45508  86586188.68307        49.750          43.500
G25  20653196.640    20653198.640         310.395         310.395   108533274.35808  84571389.88107        50.500          45.500
G26  23796027.800    23796032.320        -610.072        -610.071   125048975.23707  97440797.10406        42.500          40.500
G29  21188830.820    21188831.440         -66.271         -66.271   111348059.63808  86764722.08507        50.000          43.500
> 2017 03 29 13 09 15.0000000  0  6
G18  22370749.300    22370748.760        -665.085        -665.085   117559104.01808  91604478.78406        48.250          37.000
G20  20743114.080    20743113.620         160.263         160.263   109005800.95708  84939584.62907        49.000          43.250
G21  21142036.420    21142036.140        -212.539        -212.539   111102159.09508  86573098.27707        49.750          44.000
G25  20657866.480    20657868.460         312.228         312.228   108557814.41808  84590512.00107        50.250          45.750
G26  23786883.340    23786887.960        -609.235        -609.235   125000921.04607  97403352.29806        42.750          41.000
G29  21187840.220    21187840.860         -65.840         -65.840   111342854.33608  86760665.99107        50.000          43.250
> 2017 03 29 13 09 30.0000000  0  6
G18  22360777.200    22360776.460        -664.466        -664.466   117506699.80108  91563644.34506        48.000          38.000
G20  20745530.360    20745529.940         161.949         161.949   109018498.51308  84949478.81607        49.250          43.500
G21  21138856.180    21138855.780        -211.464        -211.463   111085446.14808  86560075.19507        49.500          44.000
G25  20662562.460    20662564.500         313.952         313.953   108582492.04808  84609741.31607        50.500          45.750
G26  23777749.720    23777754.460        -608.534        -608.534   124952923.90907  97365951.95006        43.500          40.000
G29  21186855.160    21186855.800         -65.468         -65.467   111337678.11608  86756632.56607        50.250          43.250
> 2017 03 29 13 09 45.0000000  0  6
G18  22350814.360    22350813.500        -663.855        -663.854   117454344.41307  91522847.96606        47.000          37.000
G20  20747971.980    20747971.560         163.643         163.643   109031329.18108  84959476.72307        49.250          43.500
G21  21135691.900    21135691.460        -210.397        -210.396   111068817.30108  86547117.64107        49.000          44.000
G25  20667284.200    20667286.260         315.674         315.674   108607304.93308  84629076.01107        50.500          45.250
G26  23768626.620    23768631.400        -607.817        -607.817   124904982.06007  97328594.68206        43.750          39.000
G29  21185875.240    21185875.860         -65.123         -65.123   111332528.83808  86752620.13807        50.750          43.500
> 2017 03 29 13 10 00.0000000  0  6
G18  22340860.620    22340859.780        -663.317        -663.301   117402037.30907  91482089.18106        46.250          39.250
G20  20750438.700    20750438.300         165.248         165.249   109044291.80108  84969577.45107        49.500          43.500
G21  21132543.400    21132542.960        -209.406        -209.405   111052271.58808  86534224.87007        49.250          44.250
G25  20672031.420    20672033.560         317.280         317.281   108632251.90608  84648515.19407        50.250          45.500
G26  23759513.900    23759518.700        -607.178        -607.177   124857094.82707  97291279.97306        44.000          38.500
G29  21184900.320    21184900.900         -64.863         -64.863   111327405.58308  86748627.99107        51.000          43.250
> 2017 03 29 13 10 15.0000000  0  6
G18  22330915.380    22330914.720        -662.713        -662.712   117349775.52907  91441365.68406        46.500          40.000
G20  20752929.920    20752929.540         166.904         166.905   109057383.23208  84979778.56407        49.500          44.250
G21  21129410.020    21129409.600        -208.373        -208.372   111035805.38808  86521394.04707        49.500          45.000
G25  20676803.520    20676805.720         318.982         318.983   108657329.58908  84668056.22707        50.000          45.250
G26  23750411.040    23750415.800        -606.519        -606.518   124809259.37707  97254005.59806        43.750          39.750
G29  21183929.820    21183930.340         -64.526         -64.525   111322305.35808  86744653.78007        51.000          44.250
> 2017 03 29 13 10 30.0000000  0  6
G18  22320979.740    22320979.340        -662.109        -662.110   117297564.36907  91400681.68706        47.750          38.750
G20  20755446.560    20755446.200         168.557         168.559   109070608.17508  84990083.70507        49.500          44.250
G21  21126292.800    21126292.440        -207.384        -207.383   111019424.10008  86508629.39207        49.750          44.750
G25  20681601.400    20681603.660         320.679         320.680   108682542.77408  84687702.85607        49.750          44.250
G26  23741319.060    23741323.740        -605.815        -605.816   124761480.95907  97216775.69906        44.500          39.500
G29  21182964.760    21182965.180         -64.224         -64.223   111317233.36108  86740701.57007        51.250          44.000
> 2017 03 29 13 10 45.0000000  0  6
G18  22311052.840    22311052.700        -661.460        -661.461   117245398.85307  91360033.23606        47.750          39.250
G20  20757987.540    20757987.180         170.253         170.254   109083961.01308  85000488.50107        49.750          44.250
G21  21123190.680    21123190.380        -206.296        -206.296   111003122.09008  86495926.50907        49.500          45.000
G25  20686423.980    20686426.300         322.359         322.360   108707885.84508  84707450.69807        49.750          44.500
G26  23732237.000    23732241.600        -605.105        -605.105   124713754.47807  97179586.25806        45.250          38.750
G29  21182004.100    21182004.440         -63.877         -63.877   111312184.42308  86736767.33907        51.250          44.250
> 2017 03 29 13 11 00.0000000  0  6
G18  22301136.060    22301136.140        -660.830        -660.830   117193286.26707  91319426.04806        47.250          39.250
G20  20760554.220    20760553.860         171.923         171.924   109097448.81008  85010998.46107        49.500          44.250
G21  21120104.960    21120104.720        -205.249        -205.248   110986906.24808  86483290.77807        49.750          44.250
G25  20691272.600    20691274.980         324.068         324.069   108733365.75608  84727305.15807        50.000          44.750
G26  23723166.260    23723170.740        -604.404        -604.405   124666087.37507  97142443.07706        45.250          38.000
G29  21181049.200    21181049.440         -63.550         -63.550   111307165.61708  86732856.58707        51.500          44.000
> 2017 03 29 13 11 15.0000000  0  6
G18  22291228.220    22291228.480        -660.198        -660.197   117141220.58407  91278855.37606        46.500          39.000
G20  20763145.280    20763144.940         173.573         173.574   109111064.84308  85021608.35507        49.750          43.750
G21  21117034.400    21117034.180        -204.184        -204.184   110970770.02908  86470717.10807        50.000          43.250
G25  20696145.980    20696148.400         325.752         325.754   108758975.81208  84747261.02707        50.250          44.500
G26  23714105.680    23714110.000        -603.689        -603.688   124618473.54307  97105341.36706        44.750          38.000
G29  21180098.840    21180098.980         -63.185         -63.185   111302170.75608  86728964.49507        51.250          44.250
> 2017 03 29 13 11 30.0000000  0  6
G18  22281330.500    22281330.960        -659.542        -659.540   117089208.26907  91238326.31106        46.500          37.750
G20  20765761.900    20765761.540         175.262         175.263   109124815.17208  85032322.88407        49.500          44.000
G21  21113980.180    21113979.880        -203.101        -203.100   110954719.56108  86458210.25407        49.750          42.750
G25  20701045.300    20701047.720         327.455         327.456   108784722.08308  84767323.02607        50.250          45.250
G26  23705056.460    23705060.680        -602.987        -602.987   124570919.43407  97068286.24406        45.000          38.750
G29  21179154.220    21179154.280         -62.811         -62.810   111297206.08208  86725095.92307        51.250          44.250
> 2017 03 29 13 11 45.0000000  0  6
G18  22271445.500    22271446.140        -658.904        -658.905   117037263.09407  91197849.54606        46.500          37.500
G20  20768406.580    20768406.220         176.870         176.870   109138713.00708  85043152.35307        49.750          44.000
G21  21110944.820    21110944.300        -202.098        -202.098   110938768.04808  86445780.50607        50.000          42.500
G25  20705973.020    20705975.460         329.115         329.116   108810617.60508  84787501.34207        50.250          45.000
G26  23696021.220    23696025.400        -602.254        -602.254   124523438.71707  97031288.30006        44.750          39.500
G29  21178217.900    21178217.860         -62.522         -62.521   111292285.03808  86721261.34507        51.000          44.000
> 2017 03 29 13 12 00.0000000  0  6
G18  22261566.540    22261567.300        -658.226        -658.225   116985349.77307  91157397.61405        46.750          35.500
G20  20771072.540    20771072.180         178.604         178.604   109152722.61608  85054068.92207        50.000          43.500
G21  21107921.500    21107920.740        -201.029        -201.029   110922879.90208  86433400.12707        49.750          43.000
G25  20710922.360    20710924.840         330.833         330.834   108836626.65408  84807768.12607        50.000          45.750
G26  23686993.240    23686997.400        -601.476        -601.476   124475996.13607  96994320.04406        44.750          38.000
G29  21177283.100    21177283.000         -62.117         -62.116   111287372.25008  86717433.19407        51.000          43.750
> 2017 03 29 13 12 15.0000000  0  6
G18  22251697.920    22251698.680        -657.584        -657.584   116933490.54307  91116987.83606        47.250          36.250
G20  20773763.880    20773763.520         180.263         180.264   109166865.71108  85065089.50707        49.750          43.750
G21  21104914.340    21104913.400        -199.978        -199.977   110907076.86808  86421086.06607        50.250          42.000
G25  20715897.400    20715899.960         332.505         332.506   108862770.80508  84828140.18707        50.250          45.750
G26  23677976.700    23677980.880        -600.744        -600.744   124428613.85707  96957398.79206        45.250          38.500
G29  21176354.040    21176353.880         -61.775         -61.774   111282489.68108  86713628.59907        51.000          42.500
> 2017 03 29 13 12 30.0000000  0  6
G18  22241838.880    22241839.520        -656.941        -656.940   116881681.42107  91076617.10006        47.500          36.500
G20  20776479.780    20776479.440         181.900         181.901   109181137.87008  85076210.65307        49.750          43.750
G21  21101922.560    21101921.420        -198.916        -198.915   110891354.55808  86408834.91807        50.250          42.250
G25  20720897.340    20720899.980         334.178         334.179   108889045.67808  84848614.11207        50.500          45.250
G26  23668970.860    23668975.020        -600.021        -600.021   124381287.90307  96920521.44006        45.750          37.250
G29  21175429.900    21175429.720         -61.434         -61.433   111277633.21108  86709844.32707        50.500          42.750
> 2017 03 29 13 12 45.0000000  0  6
G18  22231989.600    22231990.080        -656.375        -656.384   116829923.22608  91036286.05306        48.250          37.000
G20  20779220.300    20779219.980         183.464         183.465   109195539.56008  85087432.74507        49.000          43.750
G21  21098946.220    21098944.900        -197.992        -197.991   110875713.40208  86396647.01006        49.750          41.500
G25  20725922.280    20725924.980         335.736         335.737   108915451.74208  84869190.25407        50.500          45.500
G26  23659976.000    23659979.980        -599.374        -599.374   124334019.30307  96883688.78506        45.750          37.500
G29  21174510.840    21174510.700         -61.188         -61.188   111272803.60508  86706080.98307        50.250          43.000
> 2017 03 29 13 13 00.0000000  0  6
G18  22222150.300    22222150.560        -655.653        -655.653   116778217.28208  90995995.71006        48.750          36.500
G20  20781985.600    20781985.320         185.158         185.159   109210071.50908  85098756.32607        49.250          43.500
G21  21095985.460    21095983.980        -196.858        -196.858   110860154.30708  86384523.04106        49.750          41.750
G25  20730972.320    20730975.040         337.508         337.508   108941989.63408  84889869.10807        50.500          45.750
G26  23650992.320    23650996.000        -598.582        -598.582   124286809.21307  96846901.71606        46.000          38.500
G29  21173597.100    21173597.020         -60.726         -60.726   111268002.03108  86702339.48107        50.250          42.750
> 2017 03 29 13 13 15.0000000  0  6
G18  22212321.540    22212321.500        -654.770        -654.770   116726566.14608  90955748.08906        49.000          36.250
G20  20784776.100    20784775.860         187.021         187.022   109224735.84808  85110183.07607        49.500          43.750
G21  21093040.680    21093039.120        -195.670        -195.670   110844679.34608  86372464.62707        49.750          42.750
G25  20736047.840    20736050.520         339.356         339.357   108968661.34908  84910652.24007        50.500          44.750
G26  23642020.260    23642023.660        -597.626        -597.625   124239660.18307  96810162.21206        45.500          38.000
G29  21172689.060    21172689.100         -60.189         -60.188   111263230.69808  86698621.53207        50.500          42.500
> 2017 03 29 13 13 30.0000000  0  6
G18  22202502.520    22202502.180        -654.238        -654.238   116674966.08308  90915540.27006        48.250          38.250
G20  20787590.980    20787590.780         188.554         188.554   109239528.32608  85121709.67207        49.500          43.500
G21  21090111.080    21090109.540        -194.728        -194.728   110829284.38408  86360468.55207        49.500          43.250
G25  20741148.000    20741150.620         340.877         340.878   108995462.54008  84931536.25207        50.500          45.000
G26  23633059.080    23633062.340        -597.037        -597.037   124192568.40207  96773467.30706        45.250          39.500
G29  21171786.020    21171786.120         -59.978         -59.977   111258485.58308  86694924.01907        50.750          42.500
> 2017 03 29 13 13 45.0000000  0  6
G18  22192694.040    22192693.420        -653.573        -653.572   116623421.39708  90875375.59906        48.250          38.250
G20  20790430.960    20790430.780         190.142         190.144   109254452.66908  85133339.01307        50.000          43.000
G21  21087197.420    21087195.940        -193.740        -193.739   110813973.26008  86348537.80607        50.000          42.750
G25  20746273.540    20746276.100         342.520         342.521   109022397.07108  84952524.17607        50.750          45.000
G26  23624109.620    23624112.900        -596.262        -596.260   124145538.22007  96736820.42506        45.000          39.500
G29  21170888.800    21170888.940         -59.637         -59.635   111253770.98308  86691250.29106        51.000          41.750
> 2017 03 29 13 14 00.0000000  0  6
G18  22182895.540    22182894.700        -652.941        -652.941   116571929.27807  90835251.88406        47.500          39.000
G20  20793295.440    20793295.260         191.767         191.767   109269505.56608  85145068.53507        50.000          43.250
G21  21084299.080    21084297.680        -192.725        -192.724   110798742.66908  86336669.80907        49.750          43.500
G25  20751423.780    20751426.320         344.149         344.150   109049461.47408  84973613.30407        50.750          45.500
G26  23615171.300    23615174.720        -595.551        -595.550   124098566.70607  96700219.24906        44.500          39.250
G29  21169996.800    21169996.960         -59.323         -59.323   111249083.77208  86687597.91706        51.250          41.750
> 2017 03 29 13 14 15.0000000  0  6
G18  22173107.800    22173106.920        -652.154        -652.153   116520494.11007  90795172.51206        47.000          39.500
G20  20796185.120    20796184.920         193.485         193.486   109284690.84508  85156901.20407        50.000          43.250
G21  21081416.860    21081415.520        -191.589        -191.588   110783596.70308  86324867.75207        49.500          43.750
G25  20756599.480    20756601.980         345.910         345.911   109076659.67408  84994806.68707        50.750          45.500
G26  23606244.940    23606248.540        -594.703        -594.701   124051658.33307  96663667.26206        44.250          38.000
G29  21169110.840    21169111.000         -58.851         -58.851   111244428.06108  86683970.11007        51.250          42.000
> 2017 03 29 13 14 30.0000000  0  6
G18  22163329.860    22163329.080        -651.603        -651.602   116469110.81207  90755133.57606        47.250          39.750
G20  20799098.980    20799098.760         195.002         195.003   109300003.06408  85168832.79907        50.250          43.500
G21  21078549.660    21078548.420        -190.750        -190.749   110768529.68408  86313127.22307        49.750          44.250
G25  20761799.560    20761802.040         347.398         347.399   109103986.01108  85016099.91207        50.500          45.500
G26  23597329.580    23597333.320        -594.077        -594.077   124004807.96607  96627160.48006        44.000          37.750
G29  21168229.900    21168230.060         -58.644         -58.644   111239798.73408  86680362.84506        51.250          41.250
> 2017 03 29 13 14 45.0000000  0  6
G18  22153562.160    22153561.540        -650.870        -650.871   116417781.45407  90715136.69006        47.750          38.750
G20  20802037.320    20802037.040         196.670         196.671   109315443.80108  85180864.53007        50.500          43.250
G21  21075697.860    21075696.680        -189.639        -189.638   110753543.32408  86301449.53607        50.000          44.000
G25  20767024.320    20767026.760         349.100         349.101   109131441.95808  85037494.13807        50.500          45.000
G26  23588425.620    23588429.420        -593.243        -593.244   123958017.63207  96590700.48806        44.750          37.250
G29  21167354.380    21167354.520         -58.225         -58.225   111235197.70108  86676777.63806        51.500          41.000
> 2017 03 29 13 15 00.0000000  0  6
G18  22143805.220    22143804.740        -650.098        -650.097   116366508.56707  90675183.80806        47.500          39.250
G20  20805000.500    20805000.140         198.353         198.354   109331015.03908  85192997.95807        50.500          43.250
G21  21072861.800    21072860.700        -188.559        -188.558   110738639.69608  86289836.32807        49.500          43.750
G25  20772274.100    20772276.520         350.797         350.798   109159029.60408  85058990.98007        50.500          45.250
G26  23579533.580    23579537.380        -592.394        -592.394   123911289.88607  96554289.26306        44.250          39.250
G29  21166484.680    21166484.820         -57.810         -57.811   111230627.23108  86673216.25206        51.250          40.750
> 2017 03 29 13 15 15.0000000  0  6
G18  22134059.840    22134059.440        -649.394        -649.393   116315296.42607  90635278.25106        47.250          39.500
G20  20807989.220    20807988.760         199.993         199.995   109346720.40908  85205235.90207        50.500          43.750
G21  21070042.160    21070041.140        -187.509        -187.509   110723822.49108  86278290.45507        48.500          44.250
G25  20777549.620    20777552.020         352.487         352.488   109186752.54708  85080593.25907        50.500          45.750
G26  23570654.280    23570658.000        -591.621        -591.621   123864628.88107  96517930.05106        43.250          39.500
G29  21165621.540    21165621.740         -57.422         -57.422   111226091.28408  86669681.76806        51.000          41.500
> 2017 03 29 13 15 30.0000000  0  6
G18  22124324.100    22124323.820        -648.714        -648.712   116264135.06407  90595412.25306        47.500          37.750
G20  20811001.480    20811000.920         201.625         201.626   109362549.57408  85217570.31007        50.250          43.750
G21  21067236.940    21067236.060        -186.487        -186.486   110709081.49108  86266803.95007        48.500          44.500
G25  20782848.900    20782851.280         354.102         354.103   109214600.34108  85102292.82007        50.750          46.250
G26  23561785.760    23561789.440        -590.849        -590.849   123818024.75607  96481615.15706        43.250          38.750
G29  21164763.080    21164763.320         -57.061         -57.060   111221579.86508  86666166.39307        50.250          42.000
> 2017 03 29 13 15 45.0000000  0  6
G18  22114598.780    22114598.600        -648.017        -648.016   116213028.60607  90555589.02306        47.000          39.000
G20  20814037.980    20814037.340         203.233         203.234   109378506.06608  85230003.93407        50.500          43.750
G21  21064446.860    21064446.200        -185.493        -185.492   110694420.23908  86255379.58707        48.500          44.750
G25  20788172.620    20788174.960         355.737         355.739   109242576.49708  85124092.40207        50.750          46.250
G26  23552928.800    23552932.520        -590.054        -590.053   123771481.50107  96445347.68106        43.250          39.000
G29  21163910.020    21163910.300         -56.678         -56.677   111217096.83408  86662673.10906        49.750          41.000
> 2017 03 29 13 16 00.0000000  0  6
G18  22104885.080    22104885.000        -647.265        -647.264   116161983.45107  90515813.57106        47.500          39.250
G20  20817099.840    20817099.140         204.923         204.924   109394595.98108  85242541.52007        50.000          43.500
G21  21061673.120    21061672.740        -184.430        -184.429   110679844.94608  86244022.18107        48.250          45.250
G25  20793521.900    20793524.220         357.411         357.412   109270686.99808  85145996.68007        50.750          45.750
G26  23544084.600    23544088.500        -589.206        -589.206   123725005.68107  96409132.77506        42.750          39.000
G29  21163063.580    21163063.880         -56.258         -56.258   111212648.58308  86659206.94606        48.500          41.750
> 2017 03 29 13 16 15.0000000  0  6
G18  22095182.260    22095182.220        -646.502        -646.501   116110995.24308  90476082.52406        48.250          38.250
G20  20820186.140    20820185.400         206.514         206.513   109410814.44208  85255179.27407        50.000          43.750
G21  21058914.820    21058914.760        -183.403        -183.402   110665350.91708  86232728.11007        48.750          45.000
G25  20798895.820    20798898.120         359.035         359.036   109298927.05608  85168001.89807        50.250          45.250
G26  23535252.400    23535256.560        -588.441        -588.440   123678593.07107  96372967.11906        43.750          39.000
G29  21162222.920    21162223.260         -55.877         -55.875   111208230.87407  86655764.51007        47.000          42.500
> 2017 03 29 13 16 30.0000000  0  6
G18  22085490.000    22085489.920        -645.829        -645.829   116060061.96208  90436394.27006        48.500          38.500
G20  20823296.360    20823295.620         208.117         208.118   109427158.77908  85267915.11907        50.000          43.750
G21  21056171.520    21056171.720        -182.402        -182.401   110650935.43808  86221495.25907        49.250          45.250
G25  20804293.840    20804296.180         360.671         360.672   109327293.94608  85190105.95507        50.000          45.250
G26  23526431.820    23526436.220        -587.696        -587.695   123632241.39807  96336848.93506        44.000          37.750
G29  21161387.500    21161387.940         -55.513         -55.510   111203841.06007  86652343.82206        47.000          41.750
> 2017 03 29 13 16 45.0000000  0  6
G18  22075808.500    22075808.360        -645.028        -645.028   116009184.84507  90396749.76506        47.750          38.750
G20  20826430.720    20826429.980         209.757         209.758   109443629.87908  85280749.72207        50.250          43.500
G21  21053443.380    21053443.760        -181.338        -181.337   110636599.31508  86210324.24607        49.750          45.000
G25  20809716.120    20809718.500         362.298         362.298   109355788.43508  85212309.42707        50.250          45.000
G26  23517623.160    23517627.680        -586.819        -586.819   123585952.07707  96300779.33806        44.250          37.250
G29  21160557.520    21160558.140         -55.117         -55.116   111199480.15507  86648945.66607        47.250          43.250
> 2017 03 29 13 17 00.0000000  0  6
G18  22066138.140    22066138.040        -644.232        -644.231   115958366.53907  90357151.07106        46.750          39.000
G20  20829589.580    20829588.860         211.498         211.499   109460229.79708  85293684.71707        50.000          44.000
G21  21050730.840    21050731.340        -180.230        -180.229   110622344.87308  86199216.87707        50.000          44.750
G25  20815163.060    20815165.460         364.036         364.037   109384412.49708  85234613.86407        50.500          45.000
G26  23508826.860    23508831.440        -585.969        -585.967   123539727.50307  96264760.19706        43.750          38.750
G29  21159733.560    21159734.340         -54.631         -54.630   111195150.79208  86645572.08407        49.250          43.250
> 2017 03 29 13 17 15.0000000  0  6
G18  22056479.020    22056479.080        -643.538        -643.537   115907608.05707  90317599.00306        46.750          37.250
G20  20832772.980    20832772.280         213.043         213.045   109476958.69808  85306720.21007        50.000          43.750
G21  21048033.940    21048034.480        -179.271        -179.270   110608172.41808  86188173.39707        50.000          44.000
G25  20820634.680    20820637.100         365.609         365.610   109413166.20908  85257019.33007        50.250          44.500
G26  23500043.060    23500047.660        -585.152        -585.152   123493568.42507  96228792.10106        44.500          39.000
G29  21158915.720    21158916.620         -54.308         -54.308   111190853.39208  86642223.43407        50.000          44.250
> 2017 03 29 13 17 30.0000000  0  6
G18  22046831.100    22046831.260        -642.842        -642.842   115856908.70707  90278093.01606        47.000          37.500
G20  20835980.720    20835980.040         214.632         214.633   109493815.55908  85319855.42207        49.750          43.750
G21  21045352.460    21045352.960        -178.274        -178.273   110594080.85908  86177192.97007        49.750          43.250
G25  20826130.780    20826133.220         367.202         367.203   109442048.49408  85279524.97107        50.000          44.750
G26  23491271.640    23491276.220        -584.351        -584.351   123447474.20207  96192874.54306        43.500          40.000
G29  21158103.860    21158104.840         -53.952         -53.951   111186587.21708  86638899.12407        50.750          45.000
> 2017 03 29 13 17 45.0000000  0  6
G18  22037194.040    22037194.180        -642.096        -642.097   115806266.22507  90238631.37806        47.500          38.000
G20  20839212.360    20839211.700         216.246         216.246   109510797.87708  85333088.38607        49.500          44.000
G21  21042685.940    21042686.280        -177.271        -177.270   110580067.70608  86166273.62907        50.000          43.000
G25  20831650.880    20831653.340         368.822         368.823   109471056.85208  85302128.87407        50.000          45.000
G26  23482512.260    23482516.780        -583.619        -583.618   123401443.02107  96157006.11906        43.500          38.750
G29  21157297.600    21157298.600         -53.552         -53.551   111182350.09308  86635597.45607        51.250          45.750
> 2017 03 29 13 18 00.0000000  0  6
G18  22027568.420    22027568.500        -641.320        -641.319   115755683.61808  90199216.36406        48.250          38.000
G20  20842468.320    20842467.680         217.859         217.860   109527908.10908  85346421.02107        49.250          44.250
G21  21040034.820    21040034.960        -176.261        -176.261   110566135.50808  86155417.38607        50.000          42.750
G25  20837195.420    20837197.920         370.449         370.450   109500193.69608  85324832.89207        50.000          45.250
G26  23473765.420    23473769.820        -582.775        -582.775   123355477.74806  96121189.03106        41.750          41.750
G29  21156497.440    21156498.400         -53.155         -53.154   111178144.76108  86632320.56907        51.250          46.000
> 2017 03 29 13 18 15.0000000  0  6
G18  22017954.560    22017954.560        -640.489        -640.489   115705162.29808  90159849.11406        48.750          38.250
G20  20845748.760    20845748.140         219.569         219.569   109545146.94308  85359853.87807        49.250          44.000
G21  21037399.300    21037399.160        -175.140        -175.140   110552285.13508  86144624.89107        50.250          42.750
G25  20842764.560    20842767.080         372.152         372.152   109529459.74808  85347637.59107        50.250          45.000
G26  23465031.320    23465035.600        -581.777        -581.777   123309579.65407  96085424.30306        42.750          39.000
G29  21155703.580    21155704.460         -52.678         -52.677   111173972.41308  86629069.38807        51.500          45.750
> 2017 03 29 13 18 30.0000000  0  6
G18  22008352.420    22008352.280        -639.761        -639.760   115654702.16808  90120529.53206        48.500          38.500
G20  20849053.600    20849053.000         221.117         221.118   109562513.96808  85373386.61507        49.500          44.250
G21  21034779.240    21034778.820        -174.163        -174.163   110538516.08508  86133895.77407        50.250          42.750
G25  20848358.180    20848360.720         373.710         373.711   109558854.34808  85370542.45907        50.250          44.250
G26  23456309.940    23456314.140        -581.012        -581.012   123263748.68907  96049711.84506        44.000          38.000
G29  21154915.940    21154916.720         -52.307         -52.305   111169832.67208  86625843.61207        51.500          45.000
> 2017 03 29 13 18 45.0000000  0  6
G18  21998761.440    21998761.160        -639.007        -639.007   115604300.43708  90081255.46606        48.500          39.500
G20  20852382.140    20852381.560         222.727         222.728   109580005.64508  85387016.47907        49.250          44.000
G21  21032174.080    21032173.380        -173.155        -173.155   110524825.18608  86123227.55107        50.250          43.250
G25  20853975.640    20853978.140         375.309         375.310   109588374.15508  85393544.87907        49.750          44.500
G26  23447600.780    23447604.920        -580.138        -580.138   123217982.00207  96014049.50106        44.250          39.250
G29  21154133.980    21154134.620         -51.932         -51.932   111165722.79808  86622641.11307        51.250          44.750
> 2017 03 29 13 19 00.0000000  0  6
G18  21989181.720    21989181.260        -638.612        -638.612   115553957.92808  90042027.54506        48.000          38.500
G20  20855734.500    20855733.960         223.942         223.943   109597622.48208  85400743.87407        49.000          45.250
G21  21029583.880    21029582.900        -172.516        -172.516   110511212.86808  86112620.56007        50.250          42.500
G25  20859616.980    20859619.440         376.572         376.573   109618019.50808  85416645.13907        49.250          44.500
G26  23438904.060    23438908.120        -579.752        -579.752   123172280.47207  95978437.92206        43.250          40.250
G29  21153357.820    21153358.300         -51.883         -51.882   111161643.37408  86619462.34307        51.000          43.750
> 2017 03 29 13 19 15.0000000  0  6
G18  21979613.360    21979612.700        -637.502        -637.502   115503675.14208  90002846.17006        48.500          38.250
G20  20859110.660    20859110.140         225.900         225.901   109615364.34308  85414568.69107        48.750          44.750
G21  21027008.620    21027007.420        -171.176        -171.175   110497679.04108  86102074.72107        50.250          43.250
G25  20865282.140    20865284.580         378.513         378.514   109647790.22408  85439843.08407        49.500          43.500
G26  23430219.840    23430223.860        -578.485        -578.485   123126644.58307  95942877.50506        44.000          39.500
G29  21152587.500    21152587.820         -51.123         -51.122   111157594.71608  86616307.53007        50.500          42.750
> 2017 03 29 13 19 30.0000000  0  6
G18  21970057.340    21970056.480        -636.687        -636.687   115453457.20108  89963715.30906        48.750          37.750
G20  20862511.500    20862511.040         227.545         227.546   109633235.91208  85428494.58007        48.500          44.500
G21  21024449.240    21024447.860        -170.130        -170.129   110484228.56508  86091593.83307        50.000          43.750
G25  20870972.040    20870974.460         380.114         380.115   109677690.98508  85463142.36107        49.750          43.750
G26  23421549.120    23421553.060        -577.625        -577.625   123081079.47607  95907372.23906        44.250          39.500
G29  21151823.960    21151824.160         -50.700         -50.699   111153581.82108  86613180.59106        50.000          41.000
> 2017 03 29 13 19 45.0000000  0  6
G18  21960513.180    21960512.120        -635.902        -635.902   115403301.50308  89924632.95706        48.500          38.750
G20  20865936.380    20865935.980         229.121         229.122   109651233.94408  85442519.00607        48.250          44.750
G21  21021905.100    21021903.620        -169.119        -169.118   110470858.27308  86081175.41107        49.750          44.250
G25  20876686.080    20876688.460         381.749         381.750   109707718.50708  85486540.40407        50.250          44.000
G26  23412891.300    23412895.220        -576.727        -576.727   123035582.44607  95871920.02806        43.750          39.250
G29  21151066.600    21151066.720         -50.283         -50.281   111149601.72308  86610079.21006        48.750          40.500
> 2017 03 29 13 20 00.0000000  0  6
G18  21950981.740    21950980.500        -634.660        -634.659   115353212.79308  89885602.80606        48.250          38.750
G20  20869386.080    20869385.780         231.182         231.183   109669362.52308  85456645.16807        48.000          44.500
G21  21019376.960    21019375.460        -167.700        -167.700   110457572.29008  86070822.69307        49.750          43.750
G25  20882425.060    20882427.360         383.775         383.776   109737876.86608  85510040.39407        50.250          44.250
G26  23404247.240    23404251.180        -575.439        -575.438   122990158.15807  95836524.44906        43.500          39.250
G29  21150316.280    21150316.360         -49.435         -49.434   111145658.91708  86607006.87706        48.000          39.500
> 2017 03 29 13 20 15.0000000  0  6
G18  21941461.920    21941460.540        -634.397        -634.396   115303185.29207  89846620.34706        47.500          37.500
G20  20872859.460    20872859.220         232.219         232.219   109687615.46108  85470868.23207        48.000          44.250
G21  21016863.640    21016862.180        -167.188        -167.188   110444364.42308  86060530.84907        49.750          43.500
G25  20888187.740    20888189.960         384.835         384.836   109768159.68108  85533637.36107        50.250          44.500
G26  23395615.840    23395619.880        -575.086        -575.086   122944800.77307  95801181.00506        43.000          38.500
G29  21149571.880    21149571.940         -49.533         -49.532   111141747.51307  86603958.99706        47.000          38.250
> 2017 03 29 13 20 30.0000000  0  6
G18  21931952.880    21931951.400        -633.544        -633.543   115253214.94107  89807682.40406        47.500          37.500
G20  20876355.640    20876355.500         233.893         233.894   109705988.31808  85485184.73007        48.000          44.250
G21  21014364.280    21014362.880        -166.095        -166.094   110431230.23508  86050296.41207        49.250          44.500
G25  20893973.240    20893975.400         386.501         386.502   109798562.37108  85557327.75107        50.000          44.750
G26  23386996.380    23387000.580        -574.180        -574.180   122899506.21907  95765886.56606        43.250          40.250
G29  21148832.580    21148832.660         -49.061         -49.060   111137863.19308  86600932.23106        48.500          39.500
> 2017 03 29 13 20 45.0000000  0  6
G18  21922455.420    21922453.940        -632.778        -632.777   115203305.83108  89768792.18606        48.000          38.250
G20  20879875.320    20879875.260         235.416         235.417   109724484.64207  85499597.44007        47.500          44.250
G21  21011879.620    21011878.340        -165.137        -165.136   110418173.56308  86040122.37407        49.000          44.250
G25  20899782.260    20899784.360         388.045         388.045   109829088.62208  85581114.42407        49.500          45.250
G26  23378389.740    23378394.100        -573.324        -573.324   122854278.80307  95730644.45006        44.500          40.500
G29  21148099.260    21148099.320         -48.681         -48.680   111134010.14308  86597929.84906        48.750          39.500
> 2017 03 29 13 21 00.0000000  0  6
G18  21912970.520    21912969.120        -631.962        -631.962   115153462.83108  89729953.48206        48.500          38.500
G20  20883419.320    20883419.360         236.990         236.992   109743108.82407  85514109.78507        47.750          44.500
G21  21009410.460    21009409.340        -164.134        -164.132   110405198.67808  86030012.05807        49.000          44.750
G25  20905615.580    20905617.700         389.657         389.658   109859742.68708  85605000.70507        49.750          45.250
G26  23369796.900    23369801.360        -572.440        -572.440   122809123.37407  95695458.41606        44.250          39.250
G29  21147372.800    21147372.860         -48.259         -48.258   111130193.04908  86594955.48506        50.000          40.750
> 2017 03 29 13 21 15.0000000  0  6
G18  21903498.360    21903497.060        -631.097        -631.096   115103686.83008  89691166.99206        49.000          38.500
G20  20886987.700    20886987.840         238.689         238.689   109761861.14307  85528721.96307        47.250          44.000
G21  21006956.900    21006955.980        -163.068        -163.067   110392306.04008  86019965.81907        49.500          44.750
G25  20911473.260    20911475.460         391.292         391.294   109890524.85608  85628986.79707        50.000          45.500
G26  23361217.940    23361222.540        -571.532        -571.532   122764040.74307  95660329.10906        45.000          40.250
G29  21146653.360    21146653.400         -47.771         -47.771   111126412.60808  86592009.68906        50.500          41.250
> 2017 03 29 13 21 30.0000000  0  6
G18  21894038.200    21894036.940        -630.240        -630.239   115053973.50908  89652429.34806        49.250          37.750
G20  20890579.520    20890579.720         240.259         240.259   109780736.52107  85543430.04107        47.750          43.000
G21  21004518.080    21004517.380        -162.050        -162.049   110379490.73708  86009979.85907        50.250          44.500
G25  20917354.360    20917356.620         392.890         392.891   109921430.06308  85653068.75907        50.500          44.750
G26  23352652.000    23352656.720        -570.583        -570.582   122719026.44507  95625253.01706        45.500          41.000
G29  21145940.020    21145940.060         -47.295         -47.294   111122664.14108  86589088.79807        51.000          42.000
> 2017 03 29 13 21 45.0000000  0  6
G18  21884588.400    21884587.100        -629.566        -629.566   115004314.49508  89613734.03906        48.750          38.250
G20  20894193.120    20894193.360         241.746         241.747   109799726.38708  85558227.32807        48.250          42.500
G21  21002092.400    21002091.840        -161.178        -161.177   110366744.21808  86000047.51007        50.250          44.000
G25  20923257.240    20923259.540         394.334         394.335   109952449.56008  85677239.77107        50.250          44.750
G26  23344097.520    23344102.380        -569.812        -569.812   122674072.19407  95590223.75306        45.250          40.750
G29  21145231.200    21145231.220         -47.011         -47.011   111118939.16908  86586186.22707        51.250          42.750
> 2017 03 29 13 22 00.0000000  0  6
G18  21875152.880    21875151.540        -628.696        -628.695   114954730.55808  89575097.19306        48.250          38.750
G20  20897832.380    20897832.640         243.348         243.349   109818850.94108  85573129.57107        48.250          42.250
G21  20999683.680    20999683.220        -160.165        -160.165   110354086.66908  85990184.49307        50.500          44.000
G25  20929185.680    20929188.000         395.926         395.926   109983603.43908  85701515.50607        50.250          44.500
G26  23335558.440    23335563.440        -568.876        -568.876   122629198.73407  95555257.45106        45.000          40.750
G29  21144530.800    21144530.820         -46.567         -46.567   111115258.33808  86583318.04407        51.500          43.000
> 2017 03 29 13 22 15.0000000  0  6
G18  21865729.340    21865728.120        -627.729        -627.729   114905209.88908  89536509.64606        48.750          39.500
G20  20901494.920    20901495.160         245.037         245.038   109838097.66008  85588127.01707        48.000          43.000
G21  20997289.640    20997289.180        -159.014        -159.013   110341505.89808  85980381.30207        50.250          44.500
G25  20935137.320    20935139.640         397.662         397.663   110014879.31608  85725886.29507        50.250          44.500
G26  23327032.560    23327037.640        -567.858        -567.858   122584394.28907  95520344.91506        44.500          41.250
G29  21143836.500    21143836.540         -45.978         -45.977   111111609.59608  86580474.86007        51.500          43.500
> 2017 03 29 13 22 30.0000000  0  6
G18  21856318.940    21856317.900        -626.934        -626.933   114855758.17708  89497975.85206        49.250          39.750
G20  20905181.720    20905181.920         246.543         246.543   109857471.79908  85603223.73007        48.250          43.500
