     3.04           OBSERVATION DATA    M: MIXED            RINEX VERSION / TYPE
Mdb2Rinex 5.6.46W                       20170714 232753 UTC PGM / RUN BY / DATE
0001                                                        MARKER NAME
2672                                                        MARKER NUMBER
GEODETIC                                                    MARKER TYPE
                                                            OBSERVER / AGENCY
472672              LEICA GX1230GG      7.53/3.054          REC # / TYPE / VERS
                    LEIAX1202GG     NONE                    ANT # / TYPE
  3965001.0631 -4392463.8330 -2374512.5318                  COMMENT
  3965001.0789 -4392463.1685 -2374512.5743                  APPROX POSITION XYZ
        0.0670        0.0000        0.0000                  ANTENNA: DELTA H/E/N
G    8 C1C L1C D1C S1C C2W L2W D2W S2W                      SYS / # / OBS TYPES
DBHZ                                                        SIGNAL STRENGTH UNIT
    15.000                                                  INTERVAL
  2017    04    03    13    30   00.0000000     GPS         TIME OF FIRST OBS
  2017    04    03    13    31   00.0000000     GPS         TIME OF LAST OBS
     0                                                      RCV CLOCK OFFS APPL
G L1C                                                       SYS / PHASE SHIFT
G L2W                                                       SYS / PHASE SHIFT
    18    18  1929     7                                    LEAP SECONDS
                                                            END OF HEADER
> 2017 03 29 13 30  0.0000000  0  6
G18  21580149.100   113404476.73908      -599.805          48.250    21580149.480    88367107.26506      -599.804          41.250
G20  21026587.060   110495458.70007       292.644          46.750    21026586.820    86100356.04607       292.644          42.000
G21  20930429.220   109990153.12908      -128.714          50.250    20930429.020    85706599.73007      -128.713          44.750
G25  21131113.460   111044740.99308       444.814          49.500    21131116.860    86528375.12307       444.815          43.750
G26  23069799.480   121232626.33107      -537.775          45.500    23069803.300    94467019.45806      -537.773          38.750
G29  21125742.900   111016526.89708       -31.389          49.000    21125743.240    86506384.27305       -31.389          35.500
> 2017 03 29 13 30 15.0000000  0  6
G18  21571161.280   113357246.01008      -598.405          48.750    21571161.860    88330304.08706      -598.404          41.500
G20  21030989.880   110518595.94307       294.534          47.000    21030989.700    86118385.06107       294.536          42.250
G21  20928507.940   109980056.76008      -127.333          50.500    20928507.760    85698732.43007      -127.334          44.750
G25  21137798.760   111079872.27108       446.724          49.000    21137802.200    86555750.11607       446.725          44.250
G26  23061742.660   121190287.87607      -536.287          45.500    23061746.420    94434028.45106      -536.286          40.000
G29  21125277.580   111014081.98608       -30.486          49.000    21125277.860    86504479.14005       -30.485          35.750
> 2017 03 29 13 30 30.0000000  0  6
G18  21562185.820   113310080.18508      -598.010          49.250    21562186.580    88293551.49307      -598.010          42.000
G20  21035412.900   110541839.15707       295.483          46.750    21035412.740    86136496.66207       295.483          42.500
G21  20926598.820   109970024.09608      -126.899          50.250    20926598.640    85690914.77407      -126.899          44.750
G25  21144503.820   111115107.49708       447.611          49.000    21144507.300    86583206.11007       447.611          45.000
G26  23053699.220   121148019.73207      -535.825          45.250    23053702.960    94401092.21806      -535.817          40.250
G29  21124817.660   111011665.38208       -30.513          48.500    21124817.840    86502596.06205       -30.513          35.750
> 2017 03 29 13 30 45.0000000  0  6
G18  21553224.480   113262988.30108      -596.944          49.500    21553225.320    88256856.53306      -596.944          41.500
G20  21039857.680   110565196.82507       297.077          47.250    21039857.580    86154697.43707       297.078          43.750
G21  20924703.460   109960063.71008      -125.883          50.250    20924703.280    85683153.43407      -125.883          44.250
G25  21151230.280   111150455.10708       449.156          49.500    21151233.800    86610749.67507       449.157          44.500
G26  23045670.900   121105830.91707      -534.686          46.000    23045674.660    94368217.82306      -534.685          39.500
G29  21124364.840   111009286.04108       -29.940          48.000    21124364.900    86500742.02206       -29.939          37.000
> 2017 03 29 13 31  0.0000000  0  6
G18  21544278.280   113215975.67908      -595.936          49.500    21544279.120    88220223.30606      -595.935          41.750
G20  21044325.080   110588673.45407       298.576          47.750    21044325.080    86172990.90607       298.575          43.500
G21  20922822.780   109950180.40708      -124.891          50.500    20922822.540    85675452.15307      -124.891          44.250
G25  21157979.040   111185919.67808       450.648          49.750    21157982.560    86638384.37707       450.649          44.000
G26  23037658.720   121063726.62407      -533.635          46.000    23037662.520    94335409.29706      -533.634          40.750
G29  21123920.040   111006948.94607       -29.353          47.000    21123920.020    86498920.90605       -29.351          34.750
