     2.11           OBSERVATION DATA    G                   RINEX VERSION / TYPE
Mdb2Rinex 5.6.46W                       20170714 232753 UTC PGM / RUN BY / DATE 
gfzrnx-1.13-7761    FILE CONVERSION     20240522 150948 UTC COMMENT             
0001                                                        MARKER NAME         
2672                                                        MARKER NUMBER       
                                                            OBSERVER / AGENCY   
472672              LEICA GX1230GG      7.53/3.054          REC # / TYPE / VERS 
                    LEIAX1202GG     NONE                    ANT # / TYPE        
        0.0670        0.0000        0.0000                  ANTENNA: DELTA H/E/N
  3965001.0789 -4392463.1685 -2374512.5743                  APPROX POSITION XYZ 
                                                            COMMENT             
*********************************************************** COMMENT             
*                 WARNING - FORMAT CONVERSION             * COMMENT             
* ------------------------------------------------------- * COMMENT             
*  The data values: observation, loss of lock (LLI) and   * COMMENT             
*  signal strength (SSI) indicators are left as they are. * COMMENT             
*    The LLI meaning differs between versions 2 and 3     * COMMENT             
*    and the Interpretation of bit 1 and 2 has to be      * COMMENT             
*                   used with caution !!!                 * COMMENT             
*********************************************************** COMMENT             
                                                            COMMENT             
RINEX 3 -> 2 TYPE CONVERSION DETAILS:                       COMMENT             
-------------------------------------                       COMMENT             
   G C1C -> C1                                              COMMENT             
   G C2W -> P2                                              COMMENT             
   G D1C -> D1                                              COMMENT             
   G D2W -> D2                                              COMMENT             
   G L1C -> L1                                              COMMENT             
   G L2W -> L2                                              COMMENT             
   G S1C -> S1                                              COMMENT             
   G S2W -> S2                                              COMMENT             
-------------------------------------                       COMMENT             
                                                            COMMENT             
     8    C1    D1    D2    L1    L2    P2    S1    S2      # / TYPES OF OBSERV 
  3965001.0631 -4392463.8330 -2374512.5318                  COMMENT             
     0                                                      RCV CLOCK OFFS APPL 
    18    18  1929     7                                    LEAP SECONDS        
     6                                                      # OF SATELLITES     
   G18     5     5     5     5     5     5     5     5      PRN / # OF OBS      
   G20     5     5     5     5     5     5     5     5      PRN / # OF OBS      
   G21     5     5     5     5     5     5     5     5      PRN / # OF OBS      
   G25     5     5     5     5     5     5     5     5      PRN / # OF OBS      
   G26     5     5     5     5     5     5     5     5      PRN / # OF OBS      
   G29     5     5     5     5     5     5     5     5      PRN / # OF OBS      
    15.000                                                  INTERVAL            
  2017     3    29    13    30    0.0000000     GPS         TIME OF FIRST OBS   
  2017     3    29    13    31    0.0000000     GPS         TIME OF LAST OBS    
                                                            END OF HEADER      
 17 03 29 13 30 00.0000000  0  6G18G20G21G25G26G29                  
  21580149.100        -599.805        -599.804   113404476.73908  88367107.26506
  21580149.480          48.250          41.250  
  21026587.060         292.644         292.644   110495458.70007  86100356.04607
  21026586.820          46.750          42.000  
  20930429.220        -128.714        -128.713   109990153.12908  85706599.73007
  20930429.020          50.250          44.750  
  21131113.460         444.814         444.815   111044740.99308  86528375.12307
  21131116.860          49.500          43.750  
  23069799.480        -537.775        -537.773   121232626.33107  94467019.45806
  23069803.300          45.500          38.750  
  21125742.900         -31.389         -31.389   111016526.89708  86506384.27305
  21125743.240          49.000          35.500  
 17 03 29 13 30 15.0000000  0  6G18G20G21G25G26G29                  
  21571161.280        -598.405        -598.404   113357246.01008  88330304.08706
  21571161.860          48.750          41.500  
  21030989.880         294.534         294.536   110518595.94307  86118385.06107
  21030989.700          47.000          42.250  
  20928507.940        -127.333        -127.334   109980056.76008  85698732.43007
  20928507.760          50.500          44.750  
  21137798.760         446.724         446.725   111079872.27108  86555750.11607
  21137802.200          49.000          44.250  
  23061742.660        -536.287        -536.286   121190287.87607  94434028.45106
  23061746.420          45.500          40.000  
  21125277.580         -30.486         -30.485   111014081.98608  86504479.14005
  21125277.860          49.000          35.750  
 17 03 29 13 30 30.0000000  0  6G18G20G21G25G26G29                  
  21562185.820        -598.010        -598.010   113310080.18508  88293551.49307
  21562186.580          49.250          42.000  
  21035412.900         295.483         295.483   110541839.15707  86136496.66207
  21035412.740          46.750          42.500  
  20926598.820        -126.899        -126.899   109970024.09608  85690914.77407
  20926598.640          50.250          44.750  
  21144503.820         447.611         447.611   111115107.49708  86583206.11007
  21144507.300          49.000          45.000  
  23053699.220        -535.825        -535.817   121148019.73207  94401092.21806
  23053702.960          45.250          40.250  
  21124817.660         -30.513         -30.513   111011665.38208  86502596.06205
  21124817.840          48.500          35.750  
 17 03 29 13 30 45.0000000  0  6G18G20G21G25G26G29                  
  21553224.480        -596.944        -596.944   113262988.30108  88256856.53306
  21553225.320          49.500          41.500  
  21039857.680         297.077         297.078   110565196.82507  86154697.43707
  21039857.580          47.250          43.750  
  20924703.460        -125.883        -125.883   109960063.71008  85683153.43407
  20924703.280          50.250          44.250  
  21151230.280         449.156         449.157   111150455.10708  86610749.67507
  21151233.800          49.500          44.500  
  23045670.900        -534.686        -534.685   121105830.91707  94368217.82306
  23045674.660          46.000          39.500  
  21124364.840         -29.940         -29.939   111009286.04108  86500742.02206
  21124364.900          48.000          37.000  
 17 03 29 13 31 00.0000000  0  6G18G20G21G25G26G29                  
  21544278.280        -595.936        -595.935   113215975.67908  88220223.30606
  21544279.120          49.500          41.750  
  21044325.080         298.576         298.575   110588673.45407  86172990.90607
  21044325.080          47.750          43.500  
  20922822.780        -124.891        -124.891   109950180.40708  85675452.15307
  20922822.540          50.500          44.250  
  21157979.040         450.648         450.649   111185919.67808  86638384.37707
  21157982.560          49.750          44.000  
  23037658.720        -533.635        -533.634   121063726.62407  94335409.29706
  23037662.520          46.000          40.750  
  21123920.040         -29.353         -29.351   111006948.94607  86498920.90605
  21123920.020          47.000          34.750  
