     3.04           OBSERVATION DATA    M: MIXED            RINEX VERSION / TYPE
Mdb2Rinex 5.6.46W                       20170714 233015 UTC PGM / RUN BY / DATE
0002                                                        MARKER NAME
2682                                                        MARKER NUMBER
GEODETIC                                                    MARKER TYPE
                                                            OBSERVER / AGENCY
472682              LEICA GX1230GG      7.53/3.054          REC # / TYPE / VERS
                    LEIAX1202GG     NONE                    ANT # / TYPE
  3964449.7863 -4392493.0497 -2375390.2159         APROX.   COMMENT
  3964449.8488 -4392493.0994 -2375390.2399                  APPROX POSITION XYZ
        0.0670        0.0000        0.0000                  ANTENNA: DELTA H/E/N
G    8 C1C L1C D1C S1C C2W L2W D2W S2W                      SYS / # / OBS TYPES
DBHZ                                                        SIGNAL STRENGTH UNIT
    15.000                                                  INTERVAL
  2017    04    03    13    30   00.0000000     GPS         TIME OF FIRST OBS
  2017    04    03    13    31   00.0000000     GPS         TIME OF LAST OBS
     0                                                      RCV CLOCK OFFS APPL
G L1C                                                       SYS / PHASE SHIFT
G L2W                                                       SYS / PHASE SHIFT
    18    18  1929     7                                    LEAP SECONDS
                                                            END OF HEADER
> 2017 03 29 13 30  0.0000000  0  6
G18  21580703.380   113407358.31408      -599.676          50.500    21580702.780    88369374.71207      -599.676          43.000
G20  21026489.640   110494945.27708       292.695          49.750    21026489.020    86099953.50007       292.696          45.000
G21  20929900.560   109987370.04108      -128.605          50.000    20929899.740    85704439.94707      -128.604          44.750
G25  21131711.760   111047886.17908       445.158          50.250    21131714.340    86530826.27107       445.160          45.750
G26  23068932.220   121228063.00507      -537.520          46.250    23068935.940    94463445.25306      -537.520          40.250
G29  21125457.620   111015025.46208       -31.079          50.750    21125457.740    86505214.57807       -31.078          45.250
> 2017 03 29 13 30 15.0000000  0  6
G18  21571713.880   113360118.02108      -598.840          50.750    21571713.240    88332564.08307      -598.839          42.250
G20  21030890.280   110518070.93308       294.071          49.750    21030889.740    86117973.47907       294.072          44.750
G21  20927977.700   109977265.16708      -127.772          50.250    20927976.900    85696566.02407      -127.771          43.750
G25  21138398.320   111083024.16508       446.436          50.250    21138400.900    86558206.47707       446.437          44.750
G26  23060876.060   121185727.26007      -536.603          46.250    23060879.680    94430456.34006      -536.604          40.000
G29  21124993.800   111012588.27908       -30.753          51.250    21124993.960    86503315.45807       -30.751          44.750
> 2017 03 29 13 30 30.0000000  0  6
G18  21562736.200   113312939.85708      -597.981          50.000    21562735.520    88295801.87507      -597.980          42.000
G20  21035310.580   110541299.79808       295.464          50.250    21035310.080    86136073.88507       295.465          44.500
G21  20926066.420   109967221.21308      -126.925          50.000    20926065.620    85688739.53307      -126.925          45.000
G25  21145104.140   111118263.31708       447.834          50.250    21145106.700    86585665.54407       447.836          45.750
G26  23052832.720   121143459.04707      -535.691          45.750    23052836.300    94397520.09406      -535.690          41.750
G29  21124534.860   111010176.65708       -30.302          51.250    21124535.020    86501436.27607       -30.300          44.750
> 2017 03 29 13 30 45.0000000  0  6
G18  21553773.740   113265841.81708      -597.099          50.000    21553773.080    88259102.12906      -597.099          41.750
G20  21039753.840   110564649.35308       296.860          49.750    21039753.400    86154268.33107       296.861          44.750
G21  20924170.060   109957255.79708      -126.045          50.250    20924169.260    85680974.26407      -126.045          44.000
G25  21151832.520   111153621.06108       449.199          50.000    21151835.080    86613216.98207       449.201          45.500
G26  23044805.640   121101276.40107      -534.704          45.750    23044809.240    94364650.47806      -534.704          39.750
G29  21124084.200   111007808.48808       -29.877          51.500    21124084.380    86499590.95007       -29.876          44.500
> 2017 03 29 13 31  0.0000000  0  6
G18  21544824.940   113218815.60308      -596.125          50.250    21544824.300    88222458.32107      -596.124          42.750
G20  21044218.320   110588110.41908       298.356          49.750    21044217.920    86172549.67307       298.357          44.500
G21  20922286.960   109947360.03208      -125.090          50.250    20922286.140    85673263.26607      -125.090          44.250
G25  21158581.700   111189088.26208       450.639          49.750    21158584.340    86640853.72507       450.640          45.000
G26  23036793.220   121059170.83207      -533.676          45.500    23036796.840    94331840.96406      -533.675          41.500
G29  21123640.160   111005475.12108       -29.387          51.250    21123640.340    86497772.73607       -29.388          44.500
