     2.11           OBSERVATION DATA    G                   RINEX VERSION / TYPE
Mdb2Rinex 5.6.46W                       20170714 233015 UTC PGM / RUN BY / DATE 
gfzrnx-1.13-7761    FILE CONVERSION     20240522 150954 UTC COMMENT             
0002                                                        MARKER NAME         
2682                                                        MARKER NUMBER       
                                                            OBSERVER / AGENCY   
472682              LEICA GX1230GG      7.53/3.054          REC # / TYPE / VERS 
                    LEIAX1202GG     NONE                    ANT # / TYPE        
        0.0670        0.0000        0.0000                  ANTENNA: DELTA H/E/N
  3964449.8488 -4392493.0994 -2375390.2399                  APPROX POSITION XYZ 
                                                            COMMENT             
*********************************************************** COMMENT             
*                 WARNING - FORMAT CONVERSION             * COMMENT             
* ------------------------------------------------------- * COMMENT             
*  The data values: observation, loss of lock (LLI) and   * COMMENT             
*  signal strength (SSI) indicators are left as they are. * COMMENT             
*    The LLI meaning differs between versions 2 and 3     * COMMENT             
*    and the Interpretation of bit 1 and 2 has to be      * COMMENT             
*                   used with caution !!!                 * COMMENT             
*********************************************************** COMMENT             
                                                            COMMENT             
RINEX 3 -> 2 TYPE CONVERSION DETAILS:                       COMMENT             
-------------------------------------                       COMMENT             
   G C1C -> C1                                              COMMENT             
   G C2W -> P2                                              COMMENT             
   G D1C -> D1                                              COMMENT             
   G D2W -> D2                                              COMMENT             
   G L1C -> L1                                              COMMENT             
   G L2W -> L2                                              COMMENT             
   G S1C -> S1                                              COMMENT             
   G S2W -> S2                                              COMMENT             
-------------------------------------                       COMMENT             
                                                            COMMENT             
     8    C1    D1    D2    L1    L2    P2    S1    S2      # / TYPES OF OBSERV 
  3964449.7863 -4392493.0497 -2375390.2159         APROX.   COMMENT             
     0                                                      RCV CLOCK OFFS APPL 
    18    18  1929     7                                    LEAP SECONDS        
     6                                                      # OF SATELLITES     
   G18     5     5     5     5     5     5     5     5      PRN / # OF OBS      
   G20     5     5     5     5     5     5     5     5      PRN / # OF OBS      
   G21     5     5     5     5     5     5     5     5      PRN / # OF OBS      
   G25     5     5     5     5     5     5     5     5      PRN / # OF OBS      
   G26     5     5     5     5     5     5     5     5      PRN / # OF OBS      
   G29     5     5     5     5     5     5     5     5      PRN / # OF OBS      
    15.000                                                  INTERVAL            
  2017     3    29    13    30    0.0000000     GPS         TIME OF FIRST OBS   
  2017     3    29    13    31    0.0000000     GPS         TIME OF LAST OBS    
                                                            END OF HEADER      
 17 03 29 13 30 00.0000000  0  6G18G20G21G25G26G29                  
  21580703.380        -599.676        -599.676   113407358.31408  88369374.71207
  21580702.780          50.500          43.000  
  21026489.640         292.695         292.696   110494945.27708  86099953.50007
  21026489.020          49.750          45.000  
  20929900.560        -128.605        -128.604   109987370.04108  85704439.94707
  20929899.740          50.000          44.750  
  21131711.760         445.158         445.160   111047886.17908  86530826.27107
  21131714.340          50.250          45.750  
  23068932.220        -537.520        -537.520   121228063.00507  94463445.25306
  23068935.940          46.250          40.250  
  21125457.620         -31.079         -31.078   111015025.46208  86505214.57807
  21125457.740          50.750          45.250  
 17 03 29 13 30 15.0000000  0  6G18G20G21G25G26G29                  
  21571713.880        -598.840        -598.839   113360118.02108  88332564.08307
  21571713.240          50.750          42.250  
  21030890.280         294.071         294.072   110518070.93308  86117973.47907
  21030889.740          49.750          44.750  
  20927977.700        -127.772        -127.771   109977265.16708  85696566.02407
  20927976.900          50.250          43.750  
  21138398.320         446.436         446.437   111083024.16508  86558206.47707
  21138400.900          50.250          44.750  
  23060876.060        -536.603        -536.604   121185727.26007  94430456.34006
  23060879.680          46.250          40.000  
  21124993.800         -30.753         -30.751   111012588.27908  86503315.45807
  21124993.960          51.250          44.750  
 17 03 29 13 30 30.0000000  0  6G18G20G21G25G26G29                  
  21562736.200        -597.981        -597.980   113312939.85708  88295801.87507
  21562735.520          50.000          42.000  
  21035310.580         295.464         295.465   110541299.79808  86136073.88507
  21035310.080          50.250          44.500  
  20926066.420        -126.925        -126.925   109967221.21308  85688739.53307
  20926065.620          50.000          45.000  
  21145104.140         447.834         447.836   111118263.31708  86585665.54407
  21145106.700          50.250          45.750  
  23052832.720        -535.691        -535.690   121143459.04707  94397520.09406
  23052836.300          45.750          41.750  
  21124534.860         -30.302         -30.300   111010176.65708  86501436.27607
  21124535.020          51.250          44.750  
 17 03 29 13 30 45.0000000  0  6G18G20G21G25G26G29                  
  21553773.740        -597.099        -597.099   113265841.81708  88259102.12906
  21553773.080          50.000          41.750  
  21039753.840         296.860         296.861   110564649.35308  86154268.33107
  21039753.400          49.750          44.750  
  20924170.060        -126.045        -126.045   109957255.79708  85680974.26407
  20924169.260          50.250          44.000  
  21151832.520         449.199         449.201   111153621.06108  86613216.98207
  21151835.080          50.000          45.500  
  23044805.640        -534.704        -534.704   121101276.40107  94364650.47806
  23044809.240          45.750          39.750  
  21124084.200         -29.877         -29.876   111007808.48808  86499590.95007
  21124084.380          51.500          44.500  
 17 03 29 13 31 00.0000000  0  6G18G20G21G25G26G29                  
  21544824.940        -596.125        -596.124   113218815.60308  88222458.32107
  21544824.300          50.250          42.750  
  21044218.320         298.356         298.357   110588110.41908  86172549.67307
  21044217.920          49.750          44.500  
  20922286.960        -125.090        -125.090   109947360.03208  85673263.26607
  20922286.140          50.250          44.250  
  21158581.700         450.639         450.640   111189088.26208  86640853.72507
  21158584.340          49.750          45.000  
  23036793.220        -533.676        -533.675   121059170.83207  94331840.96406
  23036796.840          45.500          41.500  
  21123640.160         -29.387         -29.388   111005475.12108  86497772.73607
  21123640.340          51.250          44.500  
