     3.04           OBSERVATION DATA    G                   RINEX VERSION / TYPE
Mdb2Rinex 5.6.46W                       20170714 233015 UTC PGM / RUN BY / DATE 
gfzrnx-1.13-7761    FILE PROCESSING     20240528 105638 UTC COMMENT             
0002                                                        MARKER NAME         
2682                                                        MARKER NUMBER       
                                                            OBSERVER / AGENCY   
472682              LEICA GX1230GG      7.53/3.054          REC # / TYPE / VERS 
                    LEIAX1202GG     NONE                    ANT # / TYPE        
        0.0670        0.0000        0.0000                  ANTENNA: DELTA H/E/N
  3964449.5251 -4392492.9010 -2375390.5797    APPR FORM RCV COMMENT 
  3964449.8488 -4392493.0994 -2375390.2399                  APPROX POSITION XYZ
G    8 C1C C2W D1C D2W L1C L2W S1C S2W                      SYS / # / OBS TYPES 
SNR is mapped to RINEX snr flag value [1-9]                 COMMENT             
LX:     < 12dBHz -> 1; 12-17dBHz -> 2; 18-23dBHz -> 3       COMMENT             
       24-29dBHz -> 4; 30-35dBHz -> 5; 36-41dBHz -> 6       COMMENT             
       42-47dBHz -> 7; 48-53dBHz -> 8; >= 54dBHz -> 9       COMMENT             
DBHZ                                                        SIGNAL STRENGTH UNIT
     0                                                      RCV CLOCK OFFS APPL 
G L1C                                                       SYS / PHASE SHIFT   
G L2W                                                       SYS / PHASE SHIFT   
    18    18  1929     7                                    LEAP SECONDS        
     6                                                      # OF SATELLITES     
   G18   121   121   121   121   121   121   121   121      PRN / # OF OBS      
   G20   121   121   121   121   121   121   121   121      PRN / # OF OBS      
   G21   121   121   121   121   121   121   121   121      PRN / # OF OBS      
   G25   121   121   121   121   121   121   121   121      PRN / # OF OBS      
   G26   121   121   121   121   121   121   121   121      PRN / # OF OBS      
   G29   121   121   121   121   121   121   121   121      PRN / # OF OBS      
    15.000                                                  INTERVAL            
  2017     3    29    13     5    0.0000000     GPS         TIME OF FIRST OBS   
  2017     3    29    13    35    0.0000000     GPS         TIME OF LAST OBS    
                                                            END OF HEADER      
> 2017 03 29 13 05 00.0000000  0  6
G18  22542264.980    22542265.380        -674.806        -674.808   118460399.49707  92306808.91804        43.250          24.750
G20  20705990.140    20705989.500         131.422         131.422   108810712.30908  84787565.17207        50.500          46.250
G21  21198138.460    21198137.600        -230.700        -230.700   111396970.53408  86802830.31507        49.750          44.000
G25  20582372.440    20582374.480         283.099         283.099   108161096.02208  84281381.41907        51.000          47.000
G26  23942720.240    23942724.780        -620.141        -620.142   125819845.49407  98041456.57906        44.500          39.000
G29  21204844.680    21204844.400         -70.978         -70.977   111432209.56708  86830293.89007        51.000          43.500
> 2017 03 29 13 05 15.0000000  0  6
G18  22532146.920    22532147.200        -674.387        -674.387   118407228.22907  92265376.72605        43.000          32.250
G20  20707973.060    20707972.400         132.946         132.946   108821132.61608  84795684.88807        50.500          46.250
G21  21194684.880    21194684.000        -229.788        -229.787   111378821.89108  86788688.48607        49.500          44.500
G25  20586630.960    20586633.000         284.690         284.691   108183474.51208  84298819.19307        51.000          46.750
G26  23933420.800    23933425.280        -619.827        -619.828   125770976.49907  98003376.90206        42.750          39.500
G29  21203781.020    21203780.720         -70.838         -70.836   111426620.05408  86825938.41507        51.000          44.000
> 2017 03 29 13 05 30.0000000  0  6
G18  22522037.520    22522037.680        -673.555        -673.556   118354102.30807  92223979.90105        44.250          33.250
G20  20709982.220    20709981.540         134.953         134.954   108831690.80408  84803912.04807        50.750          45.750
G21  21191248.040    21191247.180        -228.429        -228.428   111360761.31408  86774615.31707        49.250          43.750
G25  20590916.240    20590918.300         286.712         286.713   108205993.67908  84316366.56907        51.000          47.000
G26  23924131.340    23924135.740        -618.831        -618.832   125722160.06507  97965338.12406        44.250          38.250
G29  21202722.520    21202722.200         -70.256         -70.254   111421057.71708  86821604.12207        51.000          44.000
> 2017 03 29 13 05 45.0000000  0  6
G18  22511938.220    22511938.180        -673.442        -673.443   118301029.53007  92182624.47505        42.250          32.250
G20  20712018.960    20712018.280         136.215         136.216   108842393.91108  84812252.13307        50.750          46.500
G21  21187829.360    21187828.520        -227.797        -227.796   111342796.08908  86760616.43507        49.500          44.000
G25  20595229.640    20595231.700         287.988         287.988   108228660.65708  84334029.14307        51.250          47.250
G26  23914853.320    23914857.620        -618.646        -618.645   125673403.59907  97927346.05606        44.000          38.000
G29  21201670.620    21201670.280         -70.402         -70.402   111415529.94808  86817296.76507        51.250          43.500
> 2017 03 29 13 06 00.0000000  0  6
G18  22501843.280    22501843.120        -672.278        -672.278   118247979.95706  92141287.13505        39.500          33.500
G20  20714077.500    20714076.800         138.486         138.486   108853211.48008  84820681.39607        50.750          46.000
G21  21184423.020    21184422.200        -226.159        -226.158   111324895.74708  86746668.10607        49.750          44.000
G25  20599565.360    20599567.440         290.308         290.309   108251444.94908  84351783.11407        51.000          46.250
G26  23905581.000    23905585.260        -617.442        -617.440   125624677.10307  97889377.37406        43.250          39.000
G29  21200619.560    21200619.200         -69.520         -69.519   111410006.64008  86812992.86907        51.000          43.750
> 2017 03 29 13 06 15.0000000  0  6
G18  22491758.040    22491757.900        -672.000        -671.998   118194981.76006  92099989.89205        40.750          32.500
G20  20716163.100    20716162.360         139.993         139.993   108864171.26408  84829221.47307        50.750          46.250
G21  21181034.300    21181033.500        -225.270        -225.269   111307088.00508  86732791.95807        50.250          44.500
G25  20603928.660    20603930.720         291.854         291.854   108274374.16108  84369650.02807        51.250          47.250
G26  23896319.700    23896323.900        -617.031        -617.029   125576008.66607  97851453.92306        43.500          38.500
G29  21199574.660    21199574.320         -69.418         -69.417   111404515.76608  86808714.26607        51.250          44.500
> 2017 03 29 13 06 30.0000000  0  6
G18  22481680.680    22481680.520        -671.513        -671.512   118142025.05706  92058724.93305        39.000          34.750
G20  20718273.780    20718273.040         141.644         141.645   108875262.86508  84837864.27307        50.750          46.000
G21  21177661.300    21177660.460        -224.264        -224.264   111289362.68608  86718980.00507        49.750          44.000
G25  20608317.540    20608319.600         293.531         293.533   108297437.91208  84387621.75007        51.000          47.000
G26  23887067.560    23887071.680        -616.446        -616.445   125527388.43207  97813568.06706        44.750          38.250
G29  21198534.020    21198533.680         -69.154         -69.153   111399047.08008  86804452.94107        51.000          44.500
> 2017 03 29 13 06 45.0000000  0  6
G18  22471612.380    22471612.300        -671.073        -671.046   118089116.49606  92017497.47804        40.000          26.000
G20  20720410.740    20720409.960         143.245         143.246   108886492.54508  84846614.65207        50.500          46.250
G21  21174305.180    21174304.280        -223.260        -223.259   111271725.96508  86705237.13207        50.000          42.500
G25  20612733.240    20612735.320         295.179         295.180   108320642.43608  84405703.19907        51.000          47.500
G26  23877825.880    23877829.920        -615.852        -615.852   125478823.16507  97775725.00406        44.500          39.250
G29  21197498.860    21197498.580         -68.908         -68.908   111393607.30908  86800214.13607        51.500          44.500
> 2017 03 29 13 07 00.0000000  0  6
G18  22461551.540    22461551.560        -670.346        -670.345   118036247.32306  91976300.70205        41.000          30.000
G20  20722572.140    20722571.340         145.000         145.001   108897850.73108  84855465.19107        50.500          46.250
G21  21170964.080    21170963.140        -222.126        -222.125   111254168.39508  86691555.91507        49.750          44.000
G25  20617173.880    20617176.000         296.978         296.979   108343978.13308  84423886.83707        51.250          47.250
G26  23868592.940    23868596.900        -615.104        -615.104   125430303.68807  97737917.63606        43.750          38.750
G29  21196467.400    21196467.180         -68.528         -68.527   111388186.97108  86795990.48807        51.250          44.750
> 2017 03 29 13 07 15.0000000  0  6
G18  22451498.820    22451498.920        -669.497        -669.498   117983420.67207  91935137.13905        42.500          34.250
G20  20724758.600    20724757.780         146.962         146.963   108909340.68808  84864418.39707        50.500          46.250
G21  21167638.660    21167637.640        -220.795        -220.794   111236693.07708  86677938.77307        49.750          44.750
G25  20621640.080    20621642.240         298.981         298.983   108367448.12008  84442175.12607        51.000          47.250
G26  23859369.420    23859373.300        -614.140        -614.140   125381833.60307  97700148.77306        44.500          38.750
G29  21195440.300    21195440.180         -67.959         -67.957   111382789.57908  86791784.69807        51.250          44.500
> 2017 03 29 13 07 30.0000000  0  6
G18  22441456.760    22441456.900        -669.337        -669.337   117930649.82707  91894016.99205        45.250          35.500
G20  20726972.520    20726971.700         148.245         148.246   108920974.91608  84873484.00707        50.500          46.250
G21  21164331.240    21164330.200        -220.143        -220.142   111219312.49408  86664395.44507        49.000          44.500
G25  20626134.200    20626136.340         300.276         300.277   108391064.78508  84460577.69607        51.250          46.500
G26  23850157.740    23850161.540        -614.007        -614.007   125333425.79307  97662428.38906        44.500          38.250
G29  21194419.960    21194419.920         -68.025         -68.025   111377427.69508  86787606.60707        51.000          44.500
> 2017 03 29 13 07 45.0000000  0  6
G18  22431420.620    22431420.780        -668.530        -668.529   117877909.96207  91852920.97305        44.250          33.250
G20  20729209.080    20729208.260         150.169         150.170   108932728.16808  84882642.40007        50.250          46.250
G21  21161037.060    21161036.060        -218.859        -218.858   111202001.55508  86650906.39807        50.250          43.750
G25  20630651.460    20630653.580         302.234         302.235   108414803.00208  84479074.99507        51.000          47.000
G26  23840953.220    23840956.940        -613.020        -613.021   125285055.60107  97624737.37106        44.000          39.250
G29  21193401.680    21193401.700         -67.493         -67.492   111372076.62208  86783436.93007        51.000          45.000
> 2017 03 29 13 08 00.0000000  0  6
G18  22421395.260    22421395.380        -668.478        -668.476   117825226.29807  91811868.79005        42.750          33.500
G20  20731473.040    20731472.220         151.399         151.400   108944625.33408  84891912.89907        50.500          46.250
G21  21157760.900    21157759.940        -218.260        -218.259   111184785.23408  86637491.09307        50.000          44.750
G25  20635196.560    20635198.640         303.503         303.504   108438687.55108  84497686.32007        50.750          46.750
G26  23831760.620    23831764.340        -612.863        -612.862   125236748.31707  97587095.35406        44.500          36.750
G29  21192390.240    21192390.280         -67.637         -67.636   111366761.41608  86779295.21207        51.500          44.750
> 2017 03 29 13 08 15.0000000  0  6
G18  22411377.260    22411377.280        -667.575        -667.581   117772581.12107  91770846.57605        42.250          33.750
G20  20733760.940    20733760.080         153.352         153.353   108956648.27708  84901281.41307        50.750          45.500
G21  21154499.340    21154498.420        -216.921        -216.920   111167645.53708  86624135.47707        50.250          44.000
G25  20639766.020    20639768.080         305.466         305.467   108462700.20408  84516397.45607        51.000          46.750
G26  23822576.640    23822580.340        -611.948        -611.948   125188486.20207  97549488.52006        43.750          37.750
G29  21191382.220    21191382.280         -67.060         -67.059   111361464.19808  86775167.49707        51.500          44.750
> 2017 03 29 13 08 30.0000000  0  6
G18  22401368.040    22401368.020        -666.946        -666.946   117719982.32606  91729860.50604        38.000          28.000
G20  20736074.160    20736073.300         155.089         155.091   108968804.31708  84910753.64007        50.500          46.500
G21  21151253.780    21151252.880        -215.823        -215.821   111150589.80908  86610845.29107        49.750          43.750
G25  20644361.260    20644363.360         307.238         307.239   108486848.31108  84535214.15807        51.000          47.250
G26  23813402.760    23813406.380        -611.265        -611.265   125140277.13007  97511923.03006        44.250          39.500
G29  21190379.080    21190379.120         -66.701         -66.701   111356192.56508  86771059.71907        51.750          44.750
> 2017 03 29 13 08 45.0000000  0  6
G18  22391368.140    22391368.180        -666.290        -666.292   117667432.83806  91688912.95306        40.500          37.250
G20  20738413.160    20738412.300         156.826         156.828   108981095.81608  84920331.42807        50.500          45.750
G21  21148024.660    21148023.740        -214.721        -214.719   111133620.41908  86597622.40107        50.000          44.500
G25  20648982.720    20648984.860         308.975         308.975   108511134.22708  84554138.24007        51.000          46.750
G26  23804239.520    23804243.040        -610.550        -610.550   125092123.90707  97474401.06906        45.000          38.000
G29  21189381.340    21189381.340         -66.305         -66.305   111350949.24308  86766973.99707        51.250          44.750
> 2017 03 29 13 09 00.0000000  0  6
G18  22381377.340    22381377.400        -665.814        -665.812   117614930.95806  91648002.39005        40.750          33.250
G20  20740777.480    20740776.600         158.397         158.399   108993520.29708  84930012.83507        50.500          45.500
G21  21144811.560    21144810.600        -213.735        -213.735   111116735.03908  86584464.97007        50.750          44.500
G25  20653629.920    20653632.080         310.604         310.604   108535555.43808  84573167.72707        51.000          47.000
G26  23795086.520    23795089.900        -609.918        -609.918   125044024.58107  97436921.07006        44.500          37.750
G29  21188388.560    21188388.520         -66.076         -66.075   111345731.97508  86762908.59407        51.500          44.500
> 2017 03 29 13 09 15.0000000  0  6
G18  22371395.220    22371395.300        -665.112        -665.109   117562474.80506  91607127.39205        41.750          31.500
G20  20743166.740    20743165.840         160.158         160.159   109006075.92408  84939796.42207        50.250          45.500
G21  21141614.040    21141613.040        -212.604        -212.603   111099931.74008  86571371.49207        49.500          44.250
G25  20658302.480    20658304.680         312.390         312.391   108560110.02208  84592301.15407        51.000          46.750
G26  23785943.520    23785946.740        -609.176        -609.176   124995977.63907  97399481.89306        44.000          38.000
G29  21187400.480    21187400.380         -65.693         -65.692   111340539.31208  86758862.36407        51.250          44.750
> 2017 03 29 13 09 30.0000000  0  6
G18  22361421.940    22361421.980        -664.591        -664.590   117510065.07607  91566288.64705        42.750          33.500
G20  20745581.000    20745580.120         161.771         161.771   109018762.94408  84949682.40107        50.500          46.000
G21  21138432.160    21138431.140        -211.611        -211.611   111083210.84008  86558342.18807        49.750          44.000
G25  20663000.440    20663002.680         314.036         314.037   108584798.11008  84611538.60507        51.000          46.250
G26  23776810.620    23776813.700        -608.514        -608.512   124947983.81007  97362084.07706        43.000          39.750
G29  21186417.140    21186417.000         -65.407         -65.406   111335371.67508  86754835.63307        51.000          44.500
> 2017 03 29 13 09 45.0000000  0  6
G18  22351457.820    22351457.780        -664.021        -663.994   117457703.40007  91525487.41305        45.000          32.750
G20  20748020.440    20748019.580         163.449         163.450   109031582.35308  84959671.54307        50.000          46.000
G21  21135266.120    21135265.140        -210.547        -210.547   111066573.26608  86545377.85307        50.000          44.750
G25  20667724.020    20667726.260         315.713         315.714   108609620.66708  84630880.84907        51.000          47.000
G26  23767688.040    23767691.080        -607.881        -607.880   124900044.47907  97324728.77906        42.750          37.250
G29  21185438.760    21185438.600         -65.062         -65.061   111330230.23808  86750829.32207        51.250          44.500
> 2017 03 29 13 10 00.0000000  0  6
G18  22341503.080    22341502.880        -663.423        -663.418   117405390.73107  91484724.32705        45.500          35.000
G20  20750485.140    20750484.300         165.062         165.062   109044534.42108  84969764.04707        50.000          46.000
G21  21132116.060    21132115.100        -209.565        -209.564   111050019.51308  86532478.81907        50.250          44.500
G25  20672473.220    20672475.480         317.380         317.380   108634577.98908  84650328.11107        50.750          46.250
G26  23758575.940    23758579.080        -607.174        -607.174   124852160.46107  97287416.59606        42.500          39.000
G29  21184465.460    21184465.280         -64.793         -64.792   111325115.56708  86746843.85807        51.250          44.250
> 2017 03 29 13 10 15.0000000  0  6
G18  22331557.560    22331557.220        -662.741        -662.741   117353126.38407  91443998.87005        44.750          35.000
G20  20752974.920    20752974.100         166.808         166.809   109057618.34808  84979959.30007        50.000          45.750
G21  21128981.720    21128980.780        -208.443        -208.443   111033548.34508  86519644.15507        49.750          44.000
G25  20677247.900    20677250.120         319.149         319.150   108659669.05508  84669879.56407        50.750          47.000
G26  23749474.240    23749477.540        -606.451        -606.452   124804331.28007  97250147.13106        44.000          41.000
G29  21183497.120    21183496.960         -64.414         -64.412   111320026.96108  86742878.70907        51.250          44.500
> 2017 03 29 13 10 30.0000000  0  6
G18  22321621.160    22321620.660        -662.116        -662.119   117300909.78207  91403310.64605        44.750          32.750
G20  20755489.580    20755488.800         168.491         168.492   109070832.97808  84990256.40207        50.000          46.250
G21  21125863.040    21125862.060        -207.348        -207.347   111017159.33808  86506873.46507        49.500          43.750
G25  20682047.820    20682050.040         320.871         320.872   108684892.79708  84689534.41807        50.750          46.750
G26  23740382.900    23740386.380        -605.742        -605.741   124756556.38107  97212919.94706        43.250          39.500
G29  21182533.600    21182533.480         -64.044         -64.043   111314963.81408  86738933.39007        51.000          44.250
> 2017 03 29 13 10 45.0000000  0  6
G18  22311694.120    22311693.420        -661.388        -661.385   117248742.30907  91362660.62006        44.750          36.000
G20  20758029.240    20758028.480         170.241         170.241   109084179.02608  85000655.91207        50.250          45.750
G21  21122760.060    21122759.060        -206.228        -206.227   111000853.08908  86494167.31507        50.250          45.000
G25  20686873.140    20686875.340         322.633         322.634   108710249.94008  84709293.20907        50.750          47.000
G26  23731302.100    23731305.780        -604.954        -604.952   124708836.97807  97175736.00506        42.250          40.750
G29  21181575.140    21181575.060         -63.615         -63.614   111309927.23808  86735008.78407        51.000          44.500
> 2017 03 29 13 11 00.0000000  0  6
G18  22301776.580    22301775.820        -660.861        -660.860   117196624.98307  91322049.74306        45.500          37.250
G20  20760594.040    20760593.320         171.822         171.823   109097657.17508  85011158.35407        50.250          46.000
G21  21119672.920    21119671.920        -205.289        -205.288   110984630.21408  86481526.11007        50.000          45.000
G25  20691723.920    20691726.140         324.209         324.210   108735741.01708  84729156.37207        50.500          47.000
G26  23722232.060    23722235.900        -604.283        -604.283   124661174.03207  97138596.06006        43.500          41.500
G29  21180621.880    21180621.820         -63.374         -63.373   111304917.96708  86731105.46807        51.250          44.250
> 2017 03 29 13 11 15.0000000  0  6
G18  22291868.320    22291867.600        -660.285        -660.285   117144556.59307  91281476.97806        44.750          37.500
G20  20763183.660    20763182.960         173.432         173.434   109111265.65908  85021762.35107        50.000          46.500
G21  21116601.360    21116600.360        -204.304        -204.305   110968489.03108  86468948.59107        50.000          45.500
G25  20696599.880    20696602.120         325.857         325.858   108761364.31708  84749122.55607        50.500          47.000
G26  23713172.580    23713176.580        -603.680        -603.680   124613566.48807  97101499.28206        43.500          41.750
G29  21179673.600    21179673.540         -63.101         -63.101   111299934.71708  86727222.41407        51.250          44.750
> 2017 03 29 13 11 30.0000000  0  6
G18  22281969.740    22281969.140        -659.598        -659.598   117092539.23907  91240943.97205        43.750          35.500
G20  20765798.380    20765797.720         175.187         175.187   109125006.15808  85032469.21507        50.250          46.250
G21  21113545.700    21113544.740        -203.143        -203.143   110952431.31808  86456436.06607        49.750          44.750
G25  20701501.300    20701503.560         327.634         327.635   108787121.45908  84769193.05207        51.000          47.000
G26  23704124.000    23704128.180        -602.868        -602.867   124566016.35707  97064447.25506        44.500          40.500
G29  21178730.640    21178730.560         -62.646         -62.646   111294979.39208  86723361.12007        51.000          43.750
> 2017 03 29 13 11 45.0000000  0  6
G18  22272080.620    22272080.220        -658.925        -658.942   117040572.00607  91200450.03306        43.500          38.250
G20  20768437.960    20768437.320         176.822         176.823   109138877.26608  85043277.86607        50.250          46.000
G21  21110505.620    21110504.740        -202.149        -202.147   110936455.66908  86443987.49707        49.750          45.000
G25  20706427.920    20706430.200         329.318         329.319   108813011.02108  84789366.72907        50.500          47.000
G26  23695086.240    23695090.560        -602.132        -602.131   124518522.81007  97027439.31806        44.250          40.250
G29  21177792.800    21177792.700         -62.354         -62.353   111290050.83908  86719520.70107        51.250          44.250
> 2017 03 29 13 12 00.0000000  0  6
G18  22262201.140    22262201.020        -658.326        -658.326   116988655.46107  91159995.62405        45.500          35.250
G20  20771102.380    20771101.760         178.417         178.418   109152878.94308  85054188.24107        50.500          45.500
G21  21107481.160    21107480.360        -201.145        -201.145   110920562.15808  86431602.92507        49.500          43.250
G25  20711379.680    20711381.980         330.924         330.925   108839032.79008  84809643.41007        50.500          47.000
G26  23686059.320    23686063.720        -601.445        -601.445   124471086.13307  96990475.67206        44.000          40.750
G29  21176860.080    21176859.960         -62.057         -62.055   111285149.29408  86715701.30707        51.250          43.750
> 2017 03 29 13 12 15.0000000  0  6
G18  22252331.560    22252331.640        -657.627        -657.626   116936790.78907  91119581.57105        46.750          35.000
G20  20773791.800    20773791.180         180.096         180.097   109167011.89508  85065200.93007        50.500          45.750
G21  21104472.460    21104471.720        -200.073        -200.073   110904751.63308  86419283.01507        49.250          44.500
G25  20716356.760    20716359.100         332.609         332.610   108865187.49608  84830023.68707        51.000          47.000
G26  23677043.480    23677047.900        -600.723        -600.722   124423707.56607  96953557.32006        44.500          40.250
G29  21175932.680    21175932.580         -61.669         -61.668   111280275.82908  86711903.80407        51.000          44.250
> 2017 03 29 13 12 30.0000000  0  6
G18  22242471.920    22242472.140        -656.995        -656.996   116884978.14107  91079208.09906        45.750          36.000
G20  20776506.140    20776505.520         181.786         181.787   109181275.84608  85076315.68207        50.500          46.000
G21  21101479.480    21101478.800        -198.979        -198.977   110889023.72208  86407027.46707        49.750          43.250
G25  20721359.080    20721361.440         334.357         334.358   108891474.81808  84850507.29407        50.750          46.500
G26  23668038.740    23668043.200        -599.942        -599.942   124376387.29407  96916684.40306        45.500          39.750
G29  21175010.580    21175010.520         -61.292         -61.291   111275430.33708  86708128.08407        51.250          43.750
> 2017 03 29 13 12 45.0000000  0  6
G18  22232621.360    22232621.640        -656.317        -656.317   116833213.06007  91038871.68206        45.500          37.500
G20  20779244.500    20779243.880         183.447         183.447   109195666.04808  85087528.81207        50.250          46.000
G21  21098501.320    21098500.680        -197.940        -197.940   110873373.74008  86394832.72307        50.250          44.000
G25  20726385.740    20726388.100         336.020         336.020   108917890.00508  84871090.53407        51.000          45.750
G26  23659044.320    23659048.780        -599.209        -599.208   124329121.12407  96879853.60906        44.750          40.750
G29  21174092.980    21174092.920         -60.937         -60.937   111270608.45508  86704370.78007        51.250          44.250
> 2017 03 29 13 13 00.0000000  0  6
G18  22222781.800    22222782.040        -655.704        -655.703   116781505.67607  90998580.19206        45.750          36.750
G20  20782008.700    20782008.080         185.041         185.043   109210192.00708  85098847.72707        50.500          46.000
G21  21095539.860    21095539.180        -196.974        -196.973   110857811.23108  86382706.06407        50.000          44.250
G25  20731438.520    20731440.880         337.623         337.623   108944442.45908  84891780.75007        50.500          46.500
G26  23650062.100    23650066.520        -598.498        -598.498   124281918.92907  96843072.69106        44.500          39.750
G29  21173181.760    21173181.680         -60.626         -60.625   111265820.09308  86700639.56407        51.250          43.750
> 2017 03 29 13 13 15.0000000  0  6
G18  22212952.080    22212952.160        -654.947        -654.933   116729849.88607  90958328.90406        47.500          37.000
G20  20784797.500    20784796.860         186.791         186.792   109224847.16608  85110267.30807        50.250          46.250
G21  21092593.800    21092593.100        -195.883        -195.882   110842329.72608  86370642.54107        49.750          44.250
G25  20736516.140    20736518.540         339.358         339.359   108971125.55308  84912572.75107        50.750          47.250
G26  23641090.820    23641095.240        -597.729        -597.728   124234774.58207  96806336.85606        45.000          38.000
G29  21172275.700    21172275.580         -60.203         -60.203   111261058.75808  86696929.43307        51.250          43.750
> 2017 03 29 13 13 30.0000000  0  6
G18  22203132.280    22203132.140        -654.282        -654.281   116678246.00507  90918118.09606        47.750          36.000
G20  20787610.840    20787610.200         188.426         188.427   109239631.33808  85121787.43107        50.500          46.250
G21  21089663.140    21089662.440        -194.823        -194.821   110826929.10308  86358642.04807        50.000          44.750
G25  20741618.580    20741620.960         341.050         341.050   108997938.95908  84933466.29607        50.750          45.750
G26  23632130.660    23632135.000        -596.947        -596.946   124187688.41607  96769646.32706        44.500          39.500
G29  21171374.800    21171374.660         -59.853         -59.852   111256324.53308  86693240.41807        51.500          44.250
> 2017 03 29 13 13 45.0000000  0  6
G18  22193322.560    22193322.300        -653.631        -653.632   116626695.01907  90877948.51706        46.750          36.750
G20  20790448.800    20790448.160         190.073         190.074   109254544.86608  85133408.34707        50.500          46.250
G21  21086747.960    21086747.260        -193.801        -193.800   110811609.82608  86346704.95307        50.500          44.500
G25  20746745.900    20746748.280         342.699         342.699   109024883.17908  84954461.76707        50.500          46.250
G26  23623181.760    23623186.040        -596.206        -596.206   124140661.36607  96733001.89106        45.000          38.500
G29  21170479.260    21170479.080         -59.482         -59.481   111251618.37808  86689573.26407        51.250          44.500
> 2017 03 29 13 14 00.0000000  0  6
G18  22183523.660    22183523.340        -652.924        -652.911   116575200.99208  90837823.32006        48.750          37.750
G20  20793312.080    20793311.440         191.687         191.688   109269591.42008  85145132.92607        50.750          45.750
G21  21083849.000    21083848.280        -192.750        -192.750   110796375.54408  86334834.07307        50.750          44.250
G25  20751898.800    20751901.160         344.339         344.339   109051961.71708  84975561.91207        51.000          46.750
G26  23614244.840    23614249.080        -595.469        -595.470   124093697.43207  96696406.65506        44.750          37.750
G29  21169589.780    21169589.580         -59.136         -59.135   111246944.08508  86685930.94907        51.500          44.000
> 2017 03 29 13 14 15.0000000  0  6
G18  22173734.940    22173734.580        -652.260        -652.258   116523760.55308  90797739.88606        48.000          38.250
G20  20796199.940    20796199.280         193.354         193.355   109284767.09808  85156958.12207        50.500          46.000
G21  21080965.500    21080964.760        -191.740        -191.739   110781222.59408  86323026.58207        50.500          44.500
G25  20757076.520    20757078.860         345.995         345.995   109079170.68808  84996763.70007        50.750          46.000
G26  23605319.320    23605323.480        -594.687        -594.687   124046793.34507  96659858.01306        43.500          37.500
G29  21168705.660    21168705.440         -58.763         -58.762   111242298.01908  86682310.62107        51.500          44.250
> 2017 03 29 13 14 30.0000000  0  6
G18  22163956.520    22163956.040        -651.475        -651.475   116472374.05508  90757698.47906        48.750          38.000
G20  20799112.340    20799111.640         195.054         195.056   109300071.73208  85168883.78807        51.000          45.250
G21  21078097.460    21078096.660        -190.612        -190.612   110766150.67108  86311282.24707        50.250          44.000
G25  20762279.040    20762281.340         347.753         347.754   109106509.88608  85018066.94707        50.750          45.750
G26  23596405.120    23596409.300        -593.759        -593.759   123999949.35707  96623356.22506        42.000          39.250
G29  21167826.980    21167826.740         -58.311         -58.310   111237680.38508  86678712.45107        51.500          44.250
> 2017 03 29 13 14 45.0000000  0  6
G18  22154188.540    22154187.920        -650.892        -650.879   116421042.39608  90717699.78106        48.000          38.500
G20  20802049.380    20802048.680         196.579         196.581   109315505.85008  85180910.36307        50.750          45.750
G21  21075244.920    21075244.080        -189.677        -189.676   110751160.36508  86299601.48707        50.500          44.250
G25  20767506.360    20767508.640         349.272         349.274   109133979.59908  85039471.90107        50.750          46.250
G26  23587502.500    23587506.700        -593.154        -593.153   123953166.32507  96586901.91606        43.500          39.500
G29  21166953.880    21166953.640         -58.043         -58.043   111233091.99808  86675137.07007        51.500          44.250
> 2017 03 29 13 15 00.0000000  0  6
G18  22144431.060    22144430.380        -650.114        -650.115   116369766.10607  90677744.26006        47.750          36.000
G20  20805011.040    20805010.320         198.260         198.261   109331069.39708  85193037.78607        50.750          46.000
G21  21072407.900    21072407.020        -188.623        -188.622   110736251.72908  86287984.36607        50.250          44.750
G25  20772758.560    20772760.840         350.971         350.972   109161579.89408  85060978.60407        50.750          46.500
G26  23578611.580    23578615.820        -592.273        -592.273   123906444.84307  96550495.56406        44.000          39.750
G29  21166086.380    21166086.140         -57.633         -57.632   111228533.12108  86671584.68207        51.500          44.250
> 2017 03 29 13 15 15.0000000  0  6
G18  22134683.960    22134683.220        -649.450        -649.450   116318544.55508  90637831.34306        48.500          38.000
G20  20807997.080    20807996.360         199.854         199.854   109346761.08308  85205265.07407        51.000          45.750
G21  21069586.200    21069585.280        -187.605        -187.604   110721423.54808  86276429.94807        50.000          44.250
G25  20778035.340    20778037.640         352.606         352.607   109189309.48608  85082586.05207        50.500          46.500
G26  23569732.260    23569736.560        -591.555        -591.555   123859784.13707  96514136.57306        45.250          40.250
G29  21165224.320    21165224.060         -57.295         -57.294   111224002.77608  86668054.54107        51.250          44.500
> 2017 03 29 13 15 30.0000000  0  6
G18  22124947.240    22124946.420        -648.741        -648.741   116267377.55707  90597960.97706        47.000          38.500
G20  20811007.420    20811006.680         201.525         201.526   109362580.40308  85217591.80207        50.500          46.000
G21  21066779.740    21066778.780        -186.577        -186.576   110706675.37008  86264937.85907        50.000          44.250
G25  20783336.600    20783338.920         354.258         354.258   109217167.74308  85104293.77907        50.500          46.500
G26  23560864.560    23560868.880        -590.740        -590.740   123813184.15407  96477824.90006        43.500          41.000
G29  21164367.640    21164367.380         -56.913         -56.912   111219500.82908  86664546.50807        51.500          44.000
> 2017 03 29 13 15 45.0000000  0  6
G18  22115221.660    22115220.800        -648.038        -648.037   116216269.26808  90558136.34906        48.250          37.500
G20  20814042.720    20814041.980         203.128         203.130   109378530.94308  85230020.78907        50.500          46.250
G21  21063989.200    21063988.220        -185.573        -185.572   110692010.89908  86253510.97607        50.250          45.250
G25  20788663.040    20788665.360         355.913         355.914   109245158.19308  85126104.49607        50.500          46.000
G26  23552009.200    23552013.520        -589.969        -589.968   123766648.94707  96441563.69306        44.750          40.000
G29  21163517.100    21163516.820         -56.542         -56.540   111215031.12908  86661063.60307        51.500          44.000
> 2017 03 29 13 16 00.0000000  0  6
G18  22105506.760    22105505.860        -647.280        -647.297   116165217.14808  90518355.42406        49.000          39.250
G20  20817102.420    20817101.660         204.780         204.781   109394609.70208  85242549.68307        50.250          45.750
G21  21061214.000    21061213.020        -184.479        -184.479   110677427.12208  86242146.99407        50.000          45.500
G25  20794014.020    20794016.380         357.535         357.536   109273277.76208  85148015.82407        50.750          46.500
G26  23543165.700    23543169.980        -589.141        -589.139   123720176.00607  96405351.02106        45.000          39.500
G29  21162672.200    21162671.880         -56.145         -56.144   111210591.04008  86657603.78407        51.000          45.000
> 2017 03 29 13 16 15.0000000  0  6
G18  22095802.960    22095802.100        -646.585        -646.585   116114223.52908  90478620.14706        48.000          39.000
G20  20820186.880    20820186.100         206.400         206.401   109410818.54908  85255179.93507        50.500          45.750
G21  21058454.580    21058453.600        -183.468        -183.468   110662926.20708  86230847.57707        50.250          43.750
G25  20799389.960    20799392.360         359.187         359.188   109301528.42308  85170029.29707        50.250          46.250
G26  23534334.520    23534338.760        -588.363        -588.361   123673767.75307  96369188.75106        45.500          40.750
G29  21161833.380    21161833.040         -55.752         -55.752   111206182.97108  86654168.90907        51.750          44.500
> 2017 03 29 13 16 30.0000000  0  6
G18  22086109.540    22086108.720        -645.772        -645.772   116063284.56008  90438927.45406        48.500          40.000
G20  20823295.260    20823294.460         208.128         208.129   109427153.14108  85267908.18007        50.250          45.750
G21  21055710.100    21055709.080        -182.367        -182.365   110648503.71208  86219609.26107        49.500          44.750
G25  20804790.000    20804792.400         360.909         360.910   109329905.74008  85192141.48207        50.750          46.250
G26  23525514.960    23525519.140        -587.429        -587.428   123627420.39507  96333073.92306        44.250          40.500
G29  21160999.860    21160999.480         -55.313         -55.312   111201802.63708  86650755.64907        51.750          44.250
> 2017 03 29 13 16 45.0000000  0  6
G18  22076426.820    22076426.060        -645.099        -645.099   116012401.71208  90399278.47006        49.250          39.500
G20  20826427.760    20826426.920         209.690         209.691   109443614.42608  85280735.14607        50.250          45.500
G21  21052980.700    21052979.660        -181.443        -181.442   110634160.48708  86208432.73207        49.500          44.500
G25  20810214.320    20810216.700         362.474         362.475   109358410.58408  85214353.02507        50.500          46.250
G26  23516707.220    23516711.380        -586.754        -586.754   123581135.23807  96297007.61406        45.000          40.000
G29  21160171.820    21160171.440         -54.971         -54.970   111197451.18608  86647364.89207        51.500          44.500
> 2017 03 29 13 17 00.0000000  0  6
G18  22066755.500    22066754.800        -644.468        -644.461   115961578.90908  90359676.29506        48.750          39.000
G20  20829585.000    20829584.160         211.225         211.226   109460205.87408  85293663.54507        50.500          45.250
G21  21050267.100    21050266.040        -180.467        -180.466   110619900.31208  86197320.90207        49.750          43.750
G25  20815663.540    20815665.880         363.996         363.996   109387046.27408  85236666.54107        50.500          46.000
G26  23507912.040    23507916.180        -586.052        -586.051   123534916.27107  96260992.81806        45.750          38.000
G29  21159350.040    21159349.640         -54.688         -54.688   111193132.61908  86643999.76907        51.500          44.500
> 2017 03 29 13 17 15.0000000  0  6
G18  22057095.220    22057094.580        -643.620        -643.619   115910813.98908  90320119.18406        49.250          40.000
G20  20832766.440    20832765.560         212.930         212.930   109476924.32808  85306690.90507        50.500          45.000
G21  21047568.700    21047567.620        -179.333        -179.332   110605720.18208  86186271.43507        50.000          44.000
G25  20821137.040    20821139.340         365.719         365.720   109415809.63708  85259079.51207        50.500          46.500
G26  23499128.940    23499133.000        -585.087        -585.087   123488760.79007  96225027.52606        45.000          40.250
G29  21158533.980    21158533.560         -54.174         -54.174   111188844.08708  86640658.04707        51.500          44.500
> 2017 03 29 13 17 30.0000000  0  6
G18  22047446.000    22047445.420        -642.968        -642.956   115860107.18208  90280607.40706        49.000          40.250
G20  20835972.020    20835971.140         214.486         214.486   109493769.80408  85319817.23807        50.250          45.000
G21  21044885.520    21044884.400        -178.407        -178.406   110591620.00808  86175284.27407        49.750          44.250
G25  20826634.820    20826637.100         367.273         367.274   109444700.59508  85281591.93407        50.250          46.000
G26  23490357.980    23490362.020        -584.349        -584.349   123442669.27307  96189112.05306        44.000          40.750
G29  21157723.680    21157723.240         -53.869         -53.868   111184585.84508  86637339.92907        51.000          44.500
> 2017 03 29 13 17 45.0000000  0  6
G18  22037808.520    22037808.060        -642.194        -642.189   115809462.24608  90241143.85506        48.500          40.250
G20  20839202.440    20839201.580         216.096         216.096   109510745.74408  85333045.23907        50.000          45.250
G21  21042218.180    21042217.080        -177.365        -177.364   110577603.26208  86164362.14507        49.750          44.250
G25  20832157.540    20832159.800         368.925         368.926   109473722.63708  85304206.49007        50.750          46.250
G26  23481600.000    23481603.980        -583.548        -583.547   123396645.78007  96153249.59706        45.250          39.250
G29  21156919.860    21156919.400         -53.461         -53.461   111180361.69208  86634048.37507        51.750          44.000
> 2017 03 29 13 18 00.0000000  0  6
G18  22028181.700    22028181.300        -641.407        -641.406   115758873.30708  90201723.89206        49.250          40.500
G20  20842456.480    20842455.620         217.740         217.741   109527845.79008  85346369.94007        50.250          44.750
G21  21039565.520    21039564.460        -176.325        -176.325   110563663.62108  86153500.09507        50.500          44.250
G25  20837703.960    20837706.220         370.569         370.570   109502869.27308  85326918.12607        50.500          45.750
G26  23472853.840    23472857.820        -582.651        -582.652   123350684.35407  96117435.51306        45.500          39.000
G29  21156121.400    21156120.920         -53.049         -53.048   111176165.49708  86630778.60207        51.500          44.250
> 2017 03 29 13 18 15.0000000  0  6
G18  22018566.320    22018565.960        -640.627        -640.626   115708344.38508  90162350.70706        49.750          40.500
G20  20845734.720    20845733.900         219.362         219.363   109545073.11808  85359793.83807        50.000          45.000
G21  21036928.220    21036927.200        -175.307        -175.306   110549804.50608  86142700.78007        50.000          44.500
G25  20843274.760    20843276.980         372.205         372.206   109532143.77808  85349729.42307        50.500          45.500
G26  23464120.220    23464124.220        -581.814        -581.813   123304788.82207  96081672.75806        44.250          39.000
G29  21155328.960    21155328.480         -52.645         -52.644   111172000.99108  86627533.52307        51.250          44.000
> 2017 03 29 13 18 30.0000000  0  6
G18  22008962.560    22008962.200        -639.833        -639.833   115657876.46208  90123025.05606        49.000          39.000
G20  20849037.340    20849036.580         221.005         221.006   109562428.53408  85373317.52707        49.500          45.250
G21  21034306.380    21034305.380        -174.264        -174.263   110536026.64608  86131964.77507        50.000          44.000
G25  20848869.960    20848872.160         373.833         373.834   109561546.70008  85372640.75707        50.000          45.750
G26  23455399.340    23455403.360        -580.952        -580.953   123258960.27007  96045962.20406        45.000          40.250
G29  21154542.700    21154542.240         -52.182         -52.181   111167869.01208  86624313.78407        51.250          44.250
> 2017 03 29 13 18 45.0000000  0  6
G18  21999370.100    21999369.680        -639.115        -639.113   115607467.77308  90083745.54006        49.750          40.000
G20  20852363.820    20852363.120         222.580         222.580   109579909.46008  85386939.02707        50.000          44.500
G21  21031699.580    21031698.580        -173.281        -173.280   110522327.81208  86121290.35307        50.250          43.750
G25  20854489.120    20854491.360         375.402         375.403   109591075.67408  85395650.33007        50.500          45.750
G26  23446690.900    23446694.880        -580.124        -580.123   123213196.93507  96010302.44906        45.750          39.250
G29  21153762.260    21153761.860         -51.835         -51.834   111163767.74908  86621117.99707        51.250          43.750
> 2017 03 29 13 19 00.0000000  0  6
G18  21989789.540    21989789.060        -638.289        -638.299   115557121.55108  90044514.74906        49.500          40.000
G20  20855714.760    20855714.080         224.239         224.238   109597518.82308  85400660.60107        50.000          45.000
G21  21029108.360    21029107.360        -172.208        -172.207   110508710.82208  86110679.71407        50.250          44.500
G25  20860132.800    20860135.060         377.106         377.107   109620733.43708  85418760.25807        50.500          46.250
G26  23437995.500    23437999.420        -579.269        -579.269   123167502.08407  95974696.08406        45.000          39.750
G29  21152988.240    21152987.900         -51.345         -51.345   111159700.24608  86617948.50407        51.250          44.250
> 2017 03 29 13 19 15.0000000  0  6
G18  21980220.660    21980220.140        -637.519        -637.519   115506836.66108  90005331.73806        49.500          41.000
G20  20859089.840    20859089.160         225.818         225.818   109615254.91808  85414480.92407        50.000          44.750
G21  21026532.380    21026531.420        -171.209        -171.210   110495174.01308  86100131.54707        50.250          44.750
G25  20865800.640    20865802.940         378.693         378.694   109650518.24208  85441969.17907        50.250          46.250
G26  23429312.880    23429316.760        -578.415        -578.416   123121874.48707  95939142.12006        45.250          39.000
G29  21152220.380    21152220.080         -50.978         -50.976   111155665.10908  86614804.22907        51.500          44.250
> 2017 03 29 13 19 30.0000000  0  6
G18  21970663.260    21970662.740        -636.795        -636.788   115456612.13208  89966195.76006        49.000          41.000
G20  20862488.720    20862488.060         227.373         227.374   109633116.20208  85428398.80407        50.250          44.500
G21  21023971.420    21023970.480        -170.234        -170.233   110481716.09908  86089644.85807        50.250          44.750
G25  20871492.360    20871494.700         380.227         380.227   109680428.55108  85465275.90007        50.750          45.250
G26  23420642.860    23420646.720        -577.609        -577.608   123076313.22507  95903639.85206        45.000          40.000
G29  21151458.460    21151458.220         -50.583         -50.583   111151661.26908  86611684.33907        51.000          44.250
> 2017 03 29 13 19 45.0000000  0  6
G18  21961117.460    21961116.920        -635.964        -635.963   115406448.49408  89927107.21006        49.750          41.000
G20  20865911.440    20865910.780         229.010         229.009   109651102.66208  85442414.22507        50.000          45.000
G21  21021425.480    21021424.560        -169.169        -169.168   110468337.02808  86079219.61507        50.250          44.500
G25  20877207.940    20877210.320         381.865         381.866   109710464.26008  85488680.31907        50.500          45.750
G26  23411985.540    23411989.400        -576.694        -576.694   123030818.71707  95868189.59706        45.500          40.000
G29  21150702.560    21150702.340         -50.156         -50.155   111147688.94808  86608589.01007        51.250          44.000
> 2017 03 29 13 20 00.0000000  0  6
G18  21951583.880    21951583.320        -635.215        -635.214   115356349.08508  89888068.70206        48.750          41.000
G20  20869358.480    20869357.820         230.577         230.577   109669216.94808  85456529.24307        50.000          45.000
G21  21018895.040    21018894.160        -168.222        -168.221   110455039.56308  86068857.94707        49.750          44.750
G25  20882947.900    20882950.320         383.420         383.421   109740628.07508  85512184.57507        50.250          46.000
G26  23403341.560    23403345.420        -575.894        -575.893   122985394.23507  95832793.89606        45.750          40.000
G29  21149953.200    21149953.040         -49.786         -49.786   111143751.18708  86605520.61907        50.750          44.250
> 2017 03 29 13 20 15.0000000  0  6
G18  21942062.100    21942061.560        -634.326        -634.325   115306311.92208  89849078.72906        48.750          41.750
G20  20872829.380    20872828.740         232.257         232.257   109687456.65108  85470741.98407        50.250          45.250
G21  21016379.660    21016378.860        -167.123        -167.122   110441821.29908  86058557.98907        49.750          44.750
G25  20888711.760    20888714.200         385.127         385.129   109770917.37108  85535786.60207        50.500          46.250
G26  23394710.540    23394714.400        -574.937        -574.937   122940037.65307  95797451.11206        45.750          40.250
G29  21149210.040    21149209.900         -49.271         -49.270   111139845.87608  86602477.51107        51.000          44.250
> 2017 03 29 13 20 30.0000000  0  6
G18  21932552.420    21932551.900        -633.581        -633.579   115256338.20108  89810138.14707        48.750          42.250
G20  20876324.300    20876323.660         233.796         233.797   109705822.61908  85485053.11607        50.250          45.250
G21  21013879.520    21013878.760        -166.164        -166.163   110428683.03508  86048320.38107        50.500          45.000
G25  20894499.640    20894502.100         386.646         386.646   109801332.80708  85559486.92907        50.500          46.250
G26  23386092.680    23386096.560        -574.092        -574.093   122894750.37007  95762162.33806        44.750          39.750
G29  21148473.220    21148473.120         -48.907         -48.906   111135974.00508  86599460.44807        51.250          44.250
> 2017 03 29 13 20 45.0000000  0  6
G18  21923054.720    21923054.300        -632.737        -632.737   115206427.59508  89771246.81107        49.250          42.250
G20  20879843.100    20879842.460         235.414         235.415   109724314.01108  85499461.99107        49.750          45.500
G21  21011394.500    21011393.760        -165.133        -165.133   110415624.25608  86038144.70907        50.250          45.000
G25  20900311.400    20900313.880         388.278         388.280   109831873.78808  85583285.07607        50.750          46.750
G26  23377487.900    23377491.840        -573.195        -573.195   122849532.17707  95726927.38406        43.500          40.250
G29  21147742.740    21147742.640         -48.472         -48.470   111132135.34108  86596469.27507        51.250          44.750
> 2017 03 29 13 21 00.0000000  0  6
G18  21913568.880    21913568.540        -631.961        -631.961   115156579.30108  89732403.98406        48.750          40.750
G20  20883385.500    20883384.840         236.970         236.971   109742929.47308  85513967.53507        50.250          45.250
G21  21008924.380    21008923.620        -164.131        -164.130   110402643.47008  86028029.81707        50.500          45.250
G25  20906146.780    20906149.260         389.834         389.836   109862538.74408  85607179.82407        50.500          46.500
G26  23368896.040    23368900.060        -572.341        -572.341   122804382.09707  95691745.51806        44.250          39.250
G29  21147018.380    21147018.280         -48.054         -48.053   111128328.84608  86593503.16907        51.500          44.250
> 2017 03 29 13 21 15.0000000  0  6
G18  21904095.500    21904095.200        -631.229        -631.229   115106796.35808  89693612.09307        49.250          42.250
G20  20886951.980    20886951.320         238.463         238.464   109761671.45208  85528571.65807        50.250          45.250
G21  21006469.600    21006468.840        -163.223        -163.223   110389743.33208  86017977.77607        49.750          45.000
G25  20912006.200    20912008.720         391.340         391.340   109893330.16408  85631173.12207        50.250          46.500
G26  23360317.760    23360321.840        -571.479        -571.479   122759303.30207  95656619.21506        44.750          40.000
G29  21146300.720    21146300.600         -47.719         -47.718   111124557.44108  86590564.39907        51.000          45.500
> 2017 03 29 13 21 30.0000000  0  6
G18  21894634.060    21894633.800        -630.315        -630.314   115057076.04208  89654868.97906        49.000          41.500
G20  20890541.880    20890541.200         240.187         240.188   109780536.44008  85543271.63907        50.000          45.250
G21  21004029.500    21004028.720        -162.098        -162.097   110376920.48108  86007985.92907        50.000          44.750
G25  20917889.020    20917891.600         393.050         393.051   109924244.53908  85655262.22307        50.500          46.250
G26  23351752.480    23351756.560        -570.476        -570.475   122714292.70107  95621546.02406        44.000          40.500
G29  21145589.120    21145588.960         -47.171         -47.170   111120817.93708  86587650.49807        51.500          44.500
> 2017 03 29 13 21 45.0000000  0  6
G18  21885185.140    21885184.940        -629.549        -629.549   115007421.62508  89616177.23607        49.000          42.000
G20  20894155.800    20894155.120         241.673         241.673   109799527.57608  85558069.93107        50.000          45.250
G21  21001604.720    21001603.940        -161.181        -161.180   110364178.10308  85998056.78307        49.500          44.250
G25  20923795.840    20923798.400         394.537         394.538   109955284.81708  85679449.43207        50.500          46.000
G26  23343200.920    23343204.920        -569.700        -569.698   122669353.92707  95586528.79906        44.500          39.500
G29  21144884.240    21144884.040         -46.807         -46.807   111117113.63308  86584764.02107        51.250          44.250
> 2017 03 29 13 22 00.0000000  0  6
G18  21875748.640    21875748.500        -628.669        -628.669   114957832.49808  89577536.35807        49.000          42.250
G20  20897793.480    20897792.820         243.314         243.315   109818643.64508  85572965.55107        50.250          45.000
G21  20999195.000    20999194.240        -160.130        -160.130   110351514.94608  85988189.39607        50.000          44.500
G25  20929726.360    20929728.900         396.162         396.163   109986449.71608  85703733.74607        50.250          45.750
G26  23334662.860    23334666.840        -568.748        -568.747   122624486.17907  95551566.92006        45.000          39.750
G29  21144185.880    21144185.640         -46.327         -46.325   111113443.70008  86581904.31307        51.250          44.500
> 2017 03 29 13 22 15.0000000  0  6
G18  21866324.280    21866324.160        -627.811        -627.808   114908307.07108  89538945.12406        49.250          41.000
G20  20901454.520    20901453.860         244.905         244.906   109837882.38008  85587956.77107        50.250          45.250
G21  20996799.960    20996799.200        -159.118        -159.117   110338929.05508  85978382.20007        50.000          44.500
G25  20935680.160    20935682.680         397.780         397.781   110017737.02508  85728113.45007        50.000          46.000
G26  23326138.040    23326141.980        -567.811        -567.811   122579687.90307  95516659.18206        44.500          40.250
G29  21143493.700    21143493.460         -45.865         -45.865   111109806.30108  86579069.98007        51.250          45.250
> 2017 03 29 13 22 30.0000000  0  6
G18  21856912.620    21856912.520        -627.051        -627.051   114858848.55808  89500406.00906        48.000          41.500
G20  20905139.400    20905138.740         246.381         246.383   109857246.46108  85603045.65807        50.500          45.000
