%  GPST                  e-baseline(m)  n-baseline(m)  u-baseline(m)   Q  ns   sde(m)   sdn(m)   sdu(m)  sden(m)  sdnu(m)  sdue(m) age(s)  ratio
sps1 spc1 2023/01/06 00:00:00.000     36359.8263     73374.9652      -538.6171   2   6   0.0033   0.0015   0.0038   0.0005   0.0010   0.0007   0.00    0.0
sps1 spc1 2023/01/07 00:00:00.000     36359.7982     73374.9598      -538.6037   2   7   0.0030   0.0014   0.0036   0.0003   0.0008   0.0008   0.00    0.0
sps1 spc1 2023/01/08 00:00:00.000     36359.8107     73374.9586      -538.6029   2   7   0.0030   0.0014   0.0036   0.0003   0.0010   0.0008   0.00    0.0
sps1 spbp 2023/01/06 15:30:00.000     90521.0224     61039.8193      -675.6891   2   9   0.0069   0.0026   0.0063   0.0018   0.0010  -0.0010   0.00    0.0
sps1 spbp 2023/01/07 00:00:00.000     90520.9229     61039.8057      -675.6610   2   7   0.0033   0.0014   0.0039   0.0002   0.0009   0.0007   0.00    0.0
sps1 spbp 2023/01/08 00:00:00.000     90520.9226     61039.8014      -675.6588   2   7   0.0032   0.0014   0.0038   0.0001   0.0009   0.0006   0.00    0.0
sps1 poli 2023/01/06 00:00:00.000     70099.1080     -8635.9259      -294.0473   2   6   0.0033   0.0014   0.0038   0.0004   0.0009   0.0008   0.00    0.0
sps1 poli 2023/01/07 00:00:00.000     70099.0834     -8635.9335      -294.0253   2   7   0.0030   0.0013   0.0036   0.0003   0.0007   0.0008   0.00    0.0
sps1 poli 2023/01/08 00:00:00.000     70099.0858     -8635.9345      -294.0176   2   7   0.0030   0.0013   0.0036   0.0004   0.0009   0.0009   0.00    0.0
poli sps1 2023/01/06 00:00:00.000    -70138.5335      8300.5413      -487.6477   2   6   0.0033   0.0014   0.0038   0.0005   0.0009   0.0008   0.00    0.0
poli sps1 2023/01/07 00:00:00.000    -70138.5084      8300.5491      -487.6686   2   7   0.0030   0.0013   0.0036   0.0004   0.0008   0.0008   0.00    0.0
poli sps1 2023/01/08 00:00:00.000    -70138.5107      8300.5500      -487.6764   2   7   0.0030   0.0013   0.0036   0.0004   0.0009   0.0008   0.00    0.0
poli spc1 2023/01/06 00:00:00.000    -34125.6730     81848.0049      -726.7200   2   6   0.0032   0.0014   0.0037  -0.0003   0.0009   0.0007   0.00    0.0
poli spc1 2023/01/07 00:00:00.000    -34125.6731     81848.0040      -726.7227   2   7   0.0030   0.0014   0.0036   0.0004   0.0009   0.0008   0.00    0.0
poli spc1 2023/01/08 00:00:00.000    -34125.6625     81848.0034      -726.7286   2   7   0.0030   0.0014   0.0035   0.0003   0.0009   0.0008   0.00    0.0
poli spbp 2023/01/06 15:30:00.000     20091.9764     69772.1766      -252.1267   2   8   0.0066   0.0025   0.0061   0.0014   0.0011  -0.0004   0.00    0.0
poli spbp 2023/01/07 00:00:00.000     20091.9541     69772.1696      -252.1162   2   7   0.0032   0.0015   0.0039   0.0004   0.0008   0.0007   0.00    0.0
poli spbp 2023/01/08 00:00:00.000     20091.9484     69772.1700      -252.1172   2   7   0.0032   0.0014   0.0037  -0.0001   0.0009   0.0005   0.00    0.0
spc1 sps1 2023/01/06 00:00:00.000    -36181.4957    -73463.2206      -516.9840   2   6   0.0033   0.0015   0.0038   0.0005   0.0009   0.0008   0.00    0.0
spc1 sps1 2023/01/07 00:00:00.000    -36181.4666    -73463.2151      -516.9977   2   7   0.0030   0.0014   0.0036   0.0004   0.0008   0.0008   0.00    0.0
spc1 sps1 2023/01/08 00:00:00.000    -36181.4787    -73463.2139      -516.9986   2   7   0.0030   0.0014   0.0036   0.0003   0.0009   0.0008   0.00    0.0
spc1 spbp 2023/01/06 15:30:00.000     54191.2364    -12202.8862        28.8949   2   9   0.0062   0.0023   0.0060   0.0008   0.0005   0.0003   0.00    0.0
spc1 spbp 2023/01/07 00:00:00.000     54191.2398    -12202.8904        28.8982   2   7   0.0032   0.0014   0.0038   0.0003   0.0007   0.0007   0.00    0.0
spc1 spbp 2023/01/08 00:00:00.000     54191.2287    -12202.8931        28.8992   2   7   0.0032   0.0013   0.0037  -0.0002   0.0008   0.0005   0.00    0.0
spbp poli 2023/01/06 00:00:00.000    -19997.3396    -69797.4177      -578.2315   2   9   0.0066   0.0025   0.0061   0.0014   0.0009  -0.0005  30.00    0.0
spbp poli 2023/01/07 00:00:00.000    -19997.3181    -69797.4128      -578.2469   2   7   0.0032   0.0014   0.0038   0.0003   0.0007   0.0007   0.00    0.0
spbp poli 2023/01/08 00:00:00.000    -19997.3180    -69797.4124      -578.2432   2   7   0.0031   0.0014   0.0037   0.0002   0.0009   0.0005   0.00    0.0
